[
  {
    "stop_id": "de:09162:1:32:72",
    "stop_code": "",
    "stop_name": "Karlsplatz (Stachus)",
    "stop_lat": "48.1401406",
    "stop_lon": "11.5657553",
    "stop_url": "https://efa.mvv-muenchen.de/index.html?name_origin=de:09162:1",
    "location_type": "0",
    "parent_station": "de:09162:1",
    "platform_code": ""
  },
  {
    "stop_id": "de:09162:1:51:51",
    "stop_code": "",
    "stop_name": "Karlsplatz (Stachus) U-Bahn Gleis 1 Ri Hauptbahnhof",
    "stop_lat": "48.1403864",
    "stop_lon": "11.5668962",
    "stop_url": "https://efa.mvv-muenchen.de/index.html?name_origin=de:09162:1",
    "location_type": "0",
    "parent_station": "de:09162:1",
    "platform_code": "U-Bahn Gleis 1 Ri Hauptbahnhof"
  },
  {
    "stop_id": "de:09162:1:52:52",
    "stop_code": "",
    "stop_name": "Karlsplatz (Stachus) U-Bahn Gleis 2 Ri Odeonsplatz",
    "stop_lat": "48.1402006",
    "stop_lon": "11.5668962",
    "stop_url": "https://efa.mvv-muenchen.de/index.html?name_origin=de:09162:1",
    "location_type": "0",
    "parent_station": "de:09162:1",
    "platform_code": "U-Bahn Gleis 2 Ri Odeonsplatz"
  },
  {
    "stop_id": "de:09162:1010:51:51",
    "stop_code": "",
    "stop_name": "Neuperlach Süd U5 Gleis 1 Ri Therese-Giehse-Allee",
    "stop_lat": "48.0888796",
    "stop_lon": "11.6452203",
    "stop_url": "https://efa.mvv-muenchen.de/index.html?name_origin=de:09162:1010",
    "location_type": "0",
    "parent_station": "de:09162:1010",
    "platform_code": "U5 Gleis 1 Ri Therese-Giehse-Allee"
  },
  {
    "stop_id": "de:09162:1010:52:52",
    "stop_code": "",
    "stop_name": "Neuperlach Süd U5 Gleis 2 Ausstieg",
    "stop_lat": "48.0888556",
    "stop_lon": "11.6451395",
    "stop_url": "https://efa.mvv-muenchen.de/index.html?name_origin=de:09162:1010",
    "location_type": "0",
    "parent_station": "de:09162:1010",
    "platform_code": "U5 Gleis 2 Ausstieg"
  },
  {
    "stop_id": "de:09162:1020:51:51",
    "stop_code": "",
    "stop_name": "Therese-Giehse-Allee Gleis 1 Ri Neuperlach Zentrum",
    "stop_lat": "48.0946578",
    "stop_lon": "11.6427499",
    "stop_url": "https://efa.mvv-muenchen.de/index.html?name_origin=de:09162:1020",
    "location_type": "0",
    "parent_station": "de:09162:1020",
    "platform_code": "Gleis 1 Ri Neuperlach Zentrum"
  },
  {
    "stop_id": "de:09162:1020:51:52",
    "stop_code": "",
    "stop_name": "Therese-Giehse-Allee Gleis 2 Ri Neuperlach Süd",
    "stop_lat": "48.0946938",
    "stop_lon": "11.6426152",
    "stop_url": "https://efa.mvv-muenchen.de/index.html?name_origin=de:09162:1020",
    "location_type": "0",
    "parent_station": "de:09162:1020",
    "platform_code": "Gleis 2 Ri Neuperlach Süd"
  },
  {
    "stop_id": "de:09162:1030:51:51",
    "stop_code": "",
    "stop_name": "Neuperlach Zentrum Gleis 1 Ri Quiddestraße",
    "stop_lat": "48.1012512",
    "stop_lon": "11.6462803",
    "stop_url": "https://efa.mvv-muenchen.de/index.html?name_origin=de:09162:1030",
    "location_type": "0",
    "parent_station": "de:09162:1030",
    "platform_code": "Gleis 1 Ri Quiddestraße"
  },
  {
    "stop_id": "de:09162:1030:51:52",
    "stop_code": "",
    "stop_name": "Neuperlach Zentrum Gleis 2 Ri Therese-Giehse-Allee",
    "stop_lat": "48.1012752",
    "stop_lon": "11.6461276",
    "stop_url": "https://efa.mvv-muenchen.de/index.html?name_origin=de:09162:1030",
    "location_type": "0",
    "parent_station": "de:09162:1030",
    "platform_code": "Gleis 2 Ri Therese-Giehse-Allee"
  },
  {
    "stop_id": "de:09162:1040:51:51",
    "stop_code": "",
    "stop_name": "Quiddestraße Gleis 1 Ri Michaelibad",
    "stop_lat": "48.1082037",
    "stop_lon": "11.6467295",
    "stop_url": "https://efa.mvv-muenchen.de/index.html?name_origin=de:09162:1040",
    "location_type": "0",
    "parent_station": "de:09162:1040",
    "platform_code": "Gleis 1 Ri Michaelibad"
  },
  {
    "stop_id": "de:09162:1040:51:52",
    "stop_code": "",
    "stop_name": "Quiddestraße Gleis 2 Ri Neuperlach Zentrum",
    "stop_lat": "48.1082037",
    "stop_lon": "11.6466037",
    "stop_url": "https://efa.mvv-muenchen.de/index.html?name_origin=de:09162:1040",
    "location_type": "0",
    "parent_station": "de:09162:1040",
    "platform_code": "Gleis 2 Ri Neuperlach Zentrum"
  },
  {
    "stop_id": "de:09162:1050:51:51",
    "stop_code": "",
    "stop_name": "Michaelibad Gleis 1 Ri Innsbrucker Ring",
    "stop_lat": "48.1183998",
    "stop_lon": "11.6317905",
    "stop_url": "https://efa.mvv-muenchen.de/index.html?name_origin=de:09162:1050",
    "location_type": "0",
    "parent_station": "de:09162:1050",
    "platform_code": "Gleis 1 Ri Innsbrucker Ring"
  },
  {
    "stop_id": "de:09162:1050:51:52",
    "stop_code": "",
    "stop_name": "Michaelibad Gleis 2 Ri Quiddestraße",
    "stop_lat": "48.1183398",
    "stop_lon": "11.6317456",
    "stop_url": "https://efa.mvv-muenchen.de/index.html?name_origin=de:09162:1050",
    "location_type": "0",
    "parent_station": "de:09162:1050",
    "platform_code": "Gleis 2 Ri Quiddestraße"
  },
  {
    "stop_id": "de:09162:1060:51:51",
    "stop_code": "",
    "stop_name": "Innsbrucker Ring U2/U7/U8 Gleis 1 Ri Karl-Preis-Platz",
    "stop_lat": "48.1204747",
    "stop_lon": "11.6188548",
    "stop_url": "https://efa.mvv-muenchen.de/index.html?name_origin=de:09162:1060",
    "location_type": "0",
    "parent_station": "de:09162:1060",
    "platform_code": "U2/U7/U8 Gleis 1 Ri Karl-Preis-Platz"
  },
  {
    "stop_id": "de:09162:1060:51:53",
    "stop_code": "",
    "stop_name": "Innsbrucker Ring U5 Gleis 3 Ri Ostbahnhof",
    "stop_lat": "48.1205167",
    "stop_lon": "11.6188548",
    "stop_url": "https://efa.mvv-muenchen.de/index.html?name_origin=de:09162:1060",
    "location_type": "0",
    "parent_station": "de:09162:1060",
    "platform_code": "U5 Gleis 3 Ri Ostbahnhof"
  },
  {
    "stop_id": "de:09162:1060:52:52",
    "stop_code": "",
    "stop_name": "Innsbrucker Ring U2/U7/U8 Gleis 2 Ri Josephsburg/Michaeli",
    "stop_lat": "48.1203848",
    "stop_lon": "11.6188368",
    "stop_url": "https://efa.mvv-muenchen.de/index.html?name_origin=de:09162:1060",
    "location_type": "0",
    "parent_station": "de:09162:1060",
    "platform_code": "U2/U7/U8 Gleis 2 Ri Josephsburg/Michaeli"
  },
  {
    "stop_id": "de:09162:1060:52:54",
    "stop_code": "",
    "stop_name": "Innsbrucker Ring U5 Gleis 4 Ri Michaelibad",
    "stop_lat": "48.1203368",
    "stop_lon": "11.6188278",
    "stop_url": "https://efa.mvv-muenchen.de/index.html?name_origin=de:09162:1060",
    "location_type": "0",
    "parent_station": "de:09162:1060",
    "platform_code": "U5 Gleis 4 Ri Michaelibad"
  },
  {
    "stop_id": "de:09162:1070:51:51",
    "stop_code": "",
    "stop_name": "Karl-Preis-Platz Gleis 1 Ri Giesing",
    "stop_lat": "48.11792",
    "stop_lon": "11.6082995",
    "stop_url": "https://efa.mvv-muenchen.de/index.html?name_origin=de:09162:1070",
    "location_type": "0",
    "parent_station": "de:09162:1070",
    "platform_code": "Gleis 1 Ri Giesing"
  },
  {
    "stop_id": "de:09162:1070:51:52",
    "stop_code": "",
    "stop_name": "Karl-Preis-Platz Gleis 2 Ri Innsbrucker Ring",
    "stop_lat": "48.1178361",
    "stop_lon": "11.6084073",
    "stop_url": "https://efa.mvv-muenchen.de/index.html?name_origin=de:09162:1070",
    "location_type": "0",
    "parent_station": "de:09162:1070",
    "platform_code": "Gleis 2 Ri Innsbrucker Ring"
  },
  {
    "stop_id": "de:09162:110:51:51",
    "stop_code": "",
    "stop_name": "Königsplatz Gleis 1 Ri Theresienstraße",
    "stop_lat": "48.14496",
    "stop_lon": "11.5632401",
    "stop_url": "https://efa.mvv-muenchen.de/index.html?name_origin=de:09162:110",
    "location_type": "0",
    "parent_station": "de:09162:110",
    "platform_code": "Gleis 1 Ri Theresienstraße"
  },
  {
    "stop_id": "de:09162:110:51:52",
    "stop_code": "",
    "stop_name": "Königsplatz Gleis 2 Ri Hauptbahnhof",
    "stop_lat": "48.144996",
    "stop_lon": "11.5631323",
    "stop_url": "https://efa.mvv-muenchen.de/index.html?name_origin=de:09162:110",
    "location_type": "0",
    "parent_station": "de:09162:110",
    "platform_code": "Gleis 2 Ri Hauptbahnhof"
  },
  {
    "stop_id": "de:09162:1110:51:51",
    "stop_code": "",
    "stop_name": "Giesing U-Bahn Gleis 1",
    "stop_lat": "48.1110588",
    "stop_lon": "11.5956333",
    "stop_url": "https://efa.mvv-muenchen.de/index.html?name_origin=de:09162:1110",
    "location_type": "0",
    "parent_station": "de:09162:1110",
    "platform_code": "U-Bahn Gleis 1"
  },
  {
    "stop_id": "de:09162:1110:51:52",
    "stop_code": "",
    "stop_name": "Giesing U-Bahn Gleis 2",
    "stop_lat": "48.1109568",
    "stop_lon": "11.5957052",
    "stop_url": "https://efa.mvv-muenchen.de/index.html?name_origin=de:09162:1110",
    "location_type": "0",
    "parent_station": "de:09162:1110",
    "platform_code": "U-Bahn Gleis 2"
  },
  {
    "stop_id": "de:09162:1130:51:51",
    "stop_code": "",
    "stop_name": "Harras U-Bahn Gleis 1 Ri Implerstraße",
    "stop_lat": "48.1168465",
    "stop_lon": "11.5377998",
    "stop_url": "https://efa.mvv-muenchen.de/index.html?name_origin=de:09162:1130",
    "location_type": "0",
    "parent_station": "de:09162:1130",
    "platform_code": "U-Bahn Gleis 1 Ri Implerstraße"
  },
  {
    "stop_id": "de:09162:1130:51:52",
    "stop_code": "",
    "stop_name": "Harras U-Bahn Gleis 2 Ri Partnachplatz",
    "stop_lat": "48.1169365",
    "stop_lon": "11.5377998",
    "stop_url": "https://efa.mvv-muenchen.de/index.html?name_origin=de:09162:1130",
    "location_type": "0",
    "parent_station": "de:09162:1130",
    "platform_code": "U-Bahn Gleis 2 Ri Partnachplatz"
  },
  {
    "stop_id": "de:09162:1140:51:51",
    "stop_code": "",
    "stop_name": "Implerstraße U6 Gleis 1 Ri Poccistraße",
    "stop_lat": "48.1202828",
    "stop_lon": "11.5485256",
    "stop_url": "https://efa.mvv-muenchen.de/index.html?name_origin=de:09162:1140",
    "location_type": "0",
    "parent_station": "de:09162:1140",
    "platform_code": "U6 Gleis 1 Ri Poccistraße"
  },
  {
    "stop_id": "de:09162:1140:51:53",
    "stop_code": "",
    "stop_name": "Implerstraße U3 Gleis 3 Ri Poccistraße",
    "stop_lat": "48.1202888",
    "stop_lon": "11.548346",
    "stop_url": "https://efa.mvv-muenchen.de/index.html?name_origin=de:09162:1140",
    "location_type": "0",
    "parent_station": "de:09162:1140",
    "platform_code": "U3 Gleis 3 Ri Poccistraße"
  },
  {
    "stop_id": "de:09162:1140:52:52",
    "stop_code": "",
    "stop_name": "Implerstraße Gleis 2 Ri Brudermühlstraße/Harras",
    "stop_lat": "48.1202888",
    "stop_lon": "11.5483101",
    "stop_url": "https://efa.mvv-muenchen.de/index.html?name_origin=de:09162:1140",
    "location_type": "0",
    "parent_station": "de:09162:1140",
    "platform_code": "Gleis 2 Ri Brudermühlstraße/Harras"
  },
  {
    "stop_id": "de:09162:1150:51:51",
    "stop_code": "",
    "stop_name": "Heimeranplatz U-Bahn Gleis 1 Ri Westendstraße",
    "stop_lat": "48.1335822",
    "stop_lon": "11.5322572",
    "stop_url": "https://efa.mvv-muenchen.de/index.html?name_origin=de:09162:1150",
    "location_type": "0",
    "parent_station": "de:09162:1150",
    "platform_code": "U-Bahn Gleis 1 Ri Westendstraße"
  },
  {
    "stop_id": "de:09162:1150:51:52",
    "stop_code": "",
    "stop_name": "Heimeranplatz U-Bahn Gleis 2 Ri Schwanthalerhöhe",
    "stop_lat": "48.1334982",
    "stop_lon": "11.5322572",
    "stop_url": "https://efa.mvv-muenchen.de/index.html?name_origin=de:09162:1150",
    "location_type": "0",
    "parent_station": "de:09162:1150",
    "platform_code": "U-Bahn Gleis 2 Ri Schwanthalerhöhe"
  },
  {
    "stop_id": "de:09162:1160:51:51",
    "stop_code": "",
    "stop_name": "Untersbergstraße Gleis 1 Ri Silberhornstraße",
    "stop_lat": "48.1126123",
    "stop_lon": "11.5876024",
    "stop_url": "https://efa.mvv-muenchen.de/index.html?name_origin=de:09162:1160",
    "location_type": "0",
    "parent_station": "de:09162:1160",
    "platform_code": "Gleis 1 Ri Silberhornstraße"
  },
  {
    "stop_id": "de:09162:1160:51:52",
    "stop_code": "",
    "stop_name": "Untersbergstraße Gleis 2 Ri Giesing",
    "stop_lat": "48.1125343",
    "stop_lon": "11.5875395",
    "stop_url": "https://efa.mvv-muenchen.de/index.html?name_origin=de:09162:1160",
    "location_type": "0",
    "parent_station": "de:09162:1160",
    "platform_code": "Gleis 2 Ri Giesing"
  },
  {
    "stop_id": "de:09162:1170:51:51",
    "stop_code": "",
    "stop_name": "Silberhornstraße Gleis 1 Ri Kolumbusplatz",
    "stop_lat": "48.1148194",
    "stop_lon": "11.580883",
    "stop_url": "https://efa.mvv-muenchen.de/index.html?name_origin=de:09162:1170",
    "location_type": "0",
    "parent_station": "de:09162:1170",
    "platform_code": "Gleis 1 Ri Kolumbusplatz"
  },
  {
    "stop_id": "de:09162:1170:51:52",
    "stop_code": "",
    "stop_name": "Silberhornstraße Gleis 2 Ri Untersbergstraße",
    "stop_lat": "48.1147294",
    "stop_lon": "11.580838",
    "stop_url": "https://efa.mvv-muenchen.de/index.html?name_origin=de:09162:1170",
    "location_type": "0",
    "parent_station": "de:09162:1170",
    "platform_code": "Gleis 2 Ri Untersbergstraße"
  },
  {
    "stop_id": "de:09162:1180:51:51",
    "stop_code": "",
    "stop_name": "Candidplatz Gleis 1 Ri Kolumbusplatz",
    "stop_lat": "48.1130741",
    "stop_lon": "11.5717291",
    "stop_url": "https://efa.mvv-muenchen.de/index.html?name_origin=de:09162:1180",
    "location_type": "0",
    "parent_station": "de:09162:1180",
    "platform_code": "Gleis 1 Ri Kolumbusplatz"
  },
  {
    "stop_id": "de:09162:1180:51:52",
    "stop_code": "",
    "stop_name": "Candidplatz Gleis 2 Ri Wettersteinplatz",
    "stop_lat": "48.1130921",
    "stop_lon": "11.5715944",
    "stop_url": "https://efa.mvv-muenchen.de/index.html?name_origin=de:09162:1180",
    "location_type": "0",
    "parent_station": "de:09162:1180",
    "platform_code": "Gleis 2 Ri Wettersteinplatz"
  },
  {
    "stop_id": "de:09162:1190:51:51",
    "stop_code": "",
    "stop_name": "Wettersteinplatz Gleis 1 Ri Candidplatz",
    "stop_lat": "48.1082337",
    "stop_lon": "11.5757805",
    "stop_url": "https://efa.mvv-muenchen.de/index.html?name_origin=de:09162:1190",
    "location_type": "0",
    "parent_station": "de:09162:1190",
    "platform_code": "Gleis 1 Ri Candidplatz"
  },
  {
    "stop_id": "de:09162:1190:51:52",
    "stop_code": "",
    "stop_name": "Wettersteinplatz Gleis 2 Ri St.-Quirin-Platz",
    "stop_lat": "48.1081737",
    "stop_lon": "11.5756997",
    "stop_url": "https://efa.mvv-muenchen.de/index.html?name_origin=de:09162:1190",
    "location_type": "0",
    "parent_station": "de:09162:1190",
    "platform_code": "Gleis 2 Ri St.-Quirin-Platz"
  },
  {
    "stop_id": "de:09162:120:51:51",
    "stop_code": "",
    "stop_name": "Theresienstraße Gleis 1 Ri Josephsplatz",
    "stop_lat": "48.151553",
    "stop_lon": "11.5645696",
    "stop_url": "https://efa.mvv-muenchen.de/index.html?name_origin=de:09162:120",
    "location_type": "0",
    "parent_station": "de:09162:120",
    "platform_code": "Gleis 1 Ri Josephsplatz"
  },
  {
    "stop_id": "de:09162:120:51:52",
    "stop_code": "",
    "stop_name": "Theresienstraße Gleis 2 Ri Königsplatz",
    "stop_lat": "48.151583",
    "stop_lon": "11.5644348",
    "stop_url": "https://efa.mvv-muenchen.de/index.html?name_origin=de:09162:120",
    "location_type": "0",
    "parent_station": "de:09162:120",
    "platform_code": "Gleis 2 Ri Königsplatz"
  },
  {
    "stop_id": "de:09162:1200:51:51",
    "stop_code": "",
    "stop_name": "St.-Quirin-Platz Gleis 1 Ri Wettersteinplatz",
    "stop_lat": "48.1044486",
    "stop_lon": "11.5814579",
    "stop_url": "https://efa.mvv-muenchen.de/index.html?name_origin=de:09162:1200",
    "location_type": "0",
    "parent_station": "de:09162:1200",
    "platform_code": "Gleis 1 Ri Wettersteinplatz"
  },
  {
    "stop_id": "de:09162:1200:51:52",
    "stop_code": "",
    "stop_name": "St.-Quirin-Platz Gleis 2 Ri Mangfallplatz",
    "stop_lat": "48.1044067",
    "stop_lon": "11.5813501",
    "stop_url": "https://efa.mvv-muenchen.de/index.html?name_origin=de:09162:1200",
    "location_type": "0",
    "parent_station": "de:09162:1200",
    "platform_code": "Gleis 2 Ri Mangfallplatz"
  },
  {
    "stop_id": "de:09162:1210:51:51",
    "stop_code": "",
    "stop_name": "Mangfallplatz Gleis 1 Ri St.-Quirin-Platz",
    "stop_lat": "48.0969437",
    "stop_lon": "11.5790145",
    "stop_url": "https://efa.mvv-muenchen.de/index.html?name_origin=de:09162:1210",
    "location_type": "0",
    "parent_station": "de:09162:1210",
    "platform_code": "Gleis 1 Ri St.-Quirin-Platz"
  },
  {
    "stop_id": "de:09162:1210:51:52",
    "stop_code": "",
    "stop_name": "Mangfallplatz Gleis 2 Ausstieg",
    "stop_lat": "48.0970037",
    "stop_lon": "11.5789336",
    "stop_url": "https://efa.mvv-muenchen.de/index.html?name_origin=de:09162:1210",
    "location_type": "0",
    "parent_station": "de:09162:1210",
    "platform_code": "Gleis 2 Ausstieg"
  },
  {
    "stop_id": "de:09162:1220:51:51",
    "stop_code": "",
    "stop_name": "Josephsburg Gleis 1 Ri Innsbrucker Ring",
    "stop_lat": "48.1266032",
    "stop_lon": "11.6337309",
    "stop_url": "https://efa.mvv-muenchen.de/index.html?name_origin=de:09162:1220",
    "location_type": "0",
    "parent_station": "de:09162:1220",
    "platform_code": "Gleis 1 Ri Innsbrucker Ring"
  },
  {
    "stop_id": "de:09162:1220:51:52",
    "stop_code": "",
    "stop_name": "Josephsburg Gleis 2 Ri Kreillerstraße",
    "stop_lat": "48.1265312",
    "stop_lon": "11.6337848",
    "stop_url": "https://efa.mvv-muenchen.de/index.html?name_origin=de:09162:1220",
    "location_type": "0",
    "parent_station": "de:09162:1220",
    "platform_code": "Gleis 2 Ri Kreillerstraße"
  },
  {
    "stop_id": "de:09162:1230:51:51",
    "stop_code": "",
    "stop_name": "Kreillerstraße Gleis 1 Ri Josephsburg",
    "stop_lat": "48.1258416",
    "stop_lon": "11.6466307",
    "stop_url": "https://efa.mvv-muenchen.de/index.html?name_origin=de:09162:1230",
    "location_type": "0",
    "parent_station": "de:09162:1230",
    "platform_code": "Gleis 1 Ri Josephsburg"
  },
  {
    "stop_id": "de:09162:1230:51:52",
    "stop_code": "",
    "stop_name": "Kreillerstraße Gleis 2 Ri Trudering",
    "stop_lat": "48.1257397",
    "stop_lon": "11.6466037",
    "stop_url": "https://efa.mvv-muenchen.de/index.html?name_origin=de:09162:1230",
    "location_type": "0",
    "parent_station": "de:09162:1230",
    "platform_code": "Gleis 2 Ri Trudering"
  },
  {
    "stop_id": "de:09162:1240:51:51",
    "stop_code": "",
    "stop_name": "Moosfeld Gleis 1 Ri Trudering",
    "stop_lat": "48.1308303",
    "stop_lon": "11.670957",
    "stop_url": "https://efa.mvv-muenchen.de/index.html?name_origin=de:09162:1240",
    "location_type": "0",
    "parent_station": "de:09162:1240",
    "platform_code": "Gleis 1 Ri Trudering"
  },
  {
    "stop_id": "de:09162:1240:51:52",
    "stop_code": "",
    "stop_name": "Moosfeld Gleis 2 Ri Messestadt West",
    "stop_lat": "48.1307943",
    "stop_lon": "11.6710648",
    "stop_url": "https://efa.mvv-muenchen.de/index.html?name_origin=de:09162:1240",
    "location_type": "0",
    "parent_station": "de:09162:1240",
    "platform_code": "Gleis 2 Ri Messestadt West"
  },
  {
    "stop_id": "de:09162:1250:51:51",
    "stop_code": "",
    "stop_name": "Messestadt West Gleis 1 Ri Moosfeld",
    "stop_lat": "48.1334863",
    "stop_lon": "11.6907918",
    "stop_url": "https://efa.mvv-muenchen.de/index.html?name_origin=de:09162:1250",
    "location_type": "0",
    "parent_station": "de:09162:1250",
    "platform_code": "Gleis 1 Ri Moosfeld"
  },
  {
    "stop_id": "de:09162:1250:51:52",
    "stop_code": "",
    "stop_name": "Messestadt West Gleis 2 Ri Messestadt Ost",
    "stop_lat": "48.1333843",
    "stop_lon": "11.6907918",
    "stop_url": "https://efa.mvv-muenchen.de/index.html?name_origin=de:09162:1250",
    "location_type": "0",
    "parent_station": "de:09162:1250",
    "platform_code": "Gleis 2 Ri Messestadt Ost"
  },
  {
    "stop_id": "de:09162:1260:51:51",
    "stop_code": "",
    "stop_name": "Messestadt Ost Gleis 1 Ri Messestadt West",
    "stop_lat": "48.1334383",
    "stop_lon": "11.7034401",
    "stop_url": "https://efa.mvv-muenchen.de/index.html?name_origin=de:09162:1260",
    "location_type": "0",
    "parent_station": "de:09162:1260",
    "platform_code": "Gleis 1 Ri Messestadt West"
  },
  {
    "stop_id": "de:09162:1260:51:52",
    "stop_code": "",
    "stop_name": "Messestadt Ost Gleis 2 Ausstieg",
    "stop_lat": "48.1333304",
    "stop_lon": "11.7034401",
    "stop_url": "https://efa.mvv-muenchen.de/index.html?name_origin=de:09162:1260",
    "location_type": "0",
    "parent_station": "de:09162:1260",
    "platform_code": "Gleis 2 Ausstieg"
  },
  {
    "stop_id": "de:09162:130:51:51",
    "stop_code": "",
    "stop_name": "Josephsplatz Gleis 1 Ri Hohenzollernplatz",
    "stop_lat": "48.1556043",
    "stop_lon": "11.5671657",
    "stop_url": "https://efa.mvv-muenchen.de/index.html?name_origin=de:09162:130",
    "location_type": "0",
    "parent_station": "de:09162:130",
    "platform_code": "Gleis 1 Ri Hohenzollernplatz"
  },
  {
    "stop_id": "de:09162:130:51:52",
    "stop_code": "",
    "stop_name": "Josephsplatz Gleis 2 Ri Theresienstraße",
    "stop_lat": "48.1556342",
    "stop_lon": "11.5670309",
    "stop_url": "https://efa.mvv-muenchen.de/index.html?name_origin=de:09162:130",
    "location_type": "0",
    "parent_station": "de:09162:130",
    "platform_code": "Gleis 2 Ri Theresienstraße"
  },
  {
    "stop_id": "de:09162:1330:51:51",
    "stop_code": "",
    "stop_name": "Partnachplatz Gleis 1 Ri Harras",
    "stop_lat": "48.1169185",
    "stop_lon": "11.5266068",
    "stop_url": "https://efa.mvv-muenchen.de/index.html?name_origin=de:09162:1330",
    "location_type": "0",
    "parent_station": "de:09162:1330",
    "platform_code": "Gleis 1 Ri Harras"
  },
  {
    "stop_id": "de:09162:1330:51:52",
    "stop_code": "",
    "stop_name": "Partnachplatz Gleis 2 Ri Westpark",
    "stop_lat": "48.1170024",
    "stop_lon": "11.5266337",
    "stop_url": "https://efa.mvv-muenchen.de/index.html?name_origin=de:09162:1330",
    "location_type": "0",
    "parent_station": "de:09162:1330",
    "platform_code": "Gleis 2 Ri Westpark"
  },
  {
    "stop_id": "de:09162:1340:51:51",
    "stop_code": "",
    "stop_name": "Westpark Gleis 1 Ri Partnachplatz",
    "stop_lat": "48.117944",
    "stop_lon": "11.5162582",
    "stop_url": "https://efa.mvv-muenchen.de/index.html?name_origin=de:09162:1340",
    "location_type": "0",
    "parent_station": "de:09162:1340",
    "platform_code": "Gleis 1 Ri Partnachplatz"
  },
  {
    "stop_id": "de:09162:1340:51:52",
    "stop_code": "",
    "stop_name": "Westpark Gleis 2 Ri Holzapfelkreuth",
    "stop_lat": "48.118028",
    "stop_lon": "11.5162671",
    "stop_url": "https://efa.mvv-muenchen.de/index.html?name_origin=de:09162:1340",
    "location_type": "0",
    "parent_station": "de:09162:1340",
    "platform_code": "Gleis 2 Ri Holzapfelkreuth"
  },
  {
    "stop_id": "de:09162:140:51:51",
    "stop_code": "",
    "stop_name": "Hohenzollernplatz Gleis 1 Ri Scheidplatz",
    "stop_lat": "48.1623936",
    "stop_lon": "11.5688815",
    "stop_url": "https://efa.mvv-muenchen.de/index.html?name_origin=de:09162:140",
    "location_type": "0",
    "parent_station": "de:09162:140",
    "platform_code": "Gleis 1 Ri Scheidplatz"
  },
  {
    "stop_id": "de:09162:140:51:52",
    "stop_code": "",
    "stop_name": "Hohenzollernplatz Gleis 2 Ri Josephsplatz",
    "stop_lat": "48.1624116",
    "stop_lon": "11.5687647",
    "stop_url": "https://efa.mvv-muenchen.de/index.html?name_origin=de:09162:140",
    "location_type": "0",
    "parent_station": "de:09162:140",
    "platform_code": "Gleis 2 Ri Josephsplatz"
  },
  {
    "stop_id": "de:09162:1430:51:51",
    "stop_code": "",
    "stop_name": "Brudermühlstraße Gleis 1 Ri Implerstraße",
    "stop_lat": "48.1122044",
    "stop_lon": "11.5487143",
    "stop_url": "https://efa.mvv-muenchen.de/index.html?name_origin=de:09162:1430",
    "location_type": "0",
    "parent_station": "de:09162:1430",
    "platform_code": "Gleis 1 Ri Implerstraße"
  },
  {
    "stop_id": "de:09162:1430:51:52",
    "stop_code": "",
    "stop_name": "Brudermühlstraße Gleis 2 Ri Thalkirchen",
    "stop_lat": "48.1122344",
    "stop_lon": "11.5485975",
    "stop_url": "https://efa.mvv-muenchen.de/index.html?name_origin=de:09162:1430",
    "location_type": "0",
    "parent_station": "de:09162:1430",
    "platform_code": "Gleis 2 Ri Thalkirchen"
  },
  {
    "stop_id": "de:09162:1440:51:51",
    "stop_code": "",
    "stop_name": "Thalkirchen (Tierpark) Gleis 1 Ri Brudermühlstraße",
    "stop_lat": "48.102769",
    "stop_lon": "11.5460463",
    "stop_url": "https://efa.mvv-muenchen.de/index.html?name_origin=de:09162:1440",
    "location_type": "0",
    "parent_station": "de:09162:1440",
    "platform_code": "Gleis 1 Ri Brudermühlstraße"
  },
  {
    "stop_id": "de:09162:1440:51:52",
    "stop_code": "",
    "stop_name": "Thalkirchen (Tierpark) Gleis 2 Ri Obersendling",
    "stop_lat": "48.102763",
    "stop_lon": "11.5459115",
    "stop_url": "https://efa.mvv-muenchen.de/index.html?name_origin=de:09162:1440",
    "location_type": "0",
    "parent_station": "de:09162:1440",
    "platform_code": "Gleis 2 Ri Obersendling"
  },
  {
    "stop_id": "de:09162:1450:51:51",
    "stop_code": "",
    "stop_name": "Obersendling Gleis 1 Ri Thalkirchen",
    "stop_lat": "48.0981676",
    "stop_lon": "11.5358864",
    "stop_url": "https://efa.mvv-muenchen.de/index.html?name_origin=de:09162:1450",
    "location_type": "0",
    "parent_station": "de:09162:1450",
    "platform_code": "Gleis 1 Ri Thalkirchen"
  },
  {
    "stop_id": "de:09162:1450:51:52",
    "stop_code": "",
    "stop_name": "Obersendling Gleis 2 Ri Aidenbachstraße",
    "stop_lat": "48.0982696",
    "stop_lon": "11.5358594",
    "stop_url": "https://efa.mvv-muenchen.de/index.html?name_origin=de:09162:1450",
    "location_type": "0",
    "parent_station": "de:09162:1450",
    "platform_code": "Gleis 2 Ri Aidenbachstraße"
  },
  {
    "stop_id": "de:09162:1460:51:51",
    "stop_code": "",
    "stop_name": "Aidenbachstraße Gleis 1 Ri Obersendling",
    "stop_lat": "48.0978856",
    "stop_lon": "11.5249988",
    "stop_url": "https://efa.mvv-muenchen.de/index.html?name_origin=de:09162:1460",
    "location_type": "0",
    "parent_station": "de:09162:1460",
    "platform_code": "Gleis 1 Ri Obersendling"
  },
  {
    "stop_id": "de:09162:1460:51:52",
    "stop_code": "",
    "stop_name": "Aidenbachstraße Gleis 2 Ri Machtlfingerstraße",
    "stop_lat": "48.0979576",
    "stop_lon": "11.5250347",
    "stop_url": "https://efa.mvv-muenchen.de/index.html?name_origin=de:09162:1460",
    "location_type": "0",
    "parent_station": "de:09162:1460",
    "platform_code": "Gleis 2 Ri Machtlfingerstraße"
  },
  {
    "stop_id": "de:09162:1470:51:51",
    "stop_code": "",
    "stop_name": "Machtlfinger Straße Gleis 1 Ri Aidenbachstraße",
    "stop_lat": "48.0972437",
    "stop_lon": "11.514722",
    "stop_url": "https://efa.mvv-muenchen.de/index.html?name_origin=de:09162:1470",
    "location_type": "0",
    "parent_station": "de:09162:1470",
    "platform_code": "Gleis 1 Ri Aidenbachstraße"
  },
  {
    "stop_id": "de:09162:1470:51:52",
    "stop_code": "",
    "stop_name": "Machtlfinger Straße Gleis 2 Ri Forstenrieder Allee",
    "stop_lat": "48.0973157",
    "stop_lon": "11.5146771",
    "stop_url": "https://efa.mvv-muenchen.de/index.html?name_origin=de:09162:1470",
    "location_type": "0",
    "parent_station": "de:09162:1470",
    "platform_code": "Gleis 2 Ri Forstenrieder Allee"
  },
  {
    "stop_id": "de:09162:1480:51:51",
    "stop_code": "",
    "stop_name": "Forstenrieder Allee Gleis 1 Ri Machtlfinger Straße",
    "stop_lat": "48.0950298",
    "stop_lon": "11.4989836",
    "stop_url": "https://efa.mvv-muenchen.de/index.html?name_origin=de:09162:1480",
    "location_type": "0",
    "parent_station": "de:09162:1480",
    "platform_code": "Gleis 1 Ri Machtlfinger Straße"
  },
  {
    "stop_id": "de:09162:1480:51:52",
    "stop_code": "",
    "stop_name": "Forstenrieder Allee Gleis 2 Ri Basler Straße",
    "stop_lat": "48.0951078",
    "stop_lon": "11.4989836",
    "stop_url": "https://efa.mvv-muenchen.de/index.html?name_origin=de:09162:1480",
    "location_type": "0",
    "parent_station": "de:09162:1480",
    "platform_code": "Gleis 2 Ri Basler Straße"
  },
  {
    "stop_id": "de:09162:1490:51:51",
    "stop_code": "",
    "stop_name": "Basler Straße Gleis 1 Ri Forstenrieder Allee",
    "stop_lat": "48.0908657",
    "stop_lon": "11.490764",
    "stop_url": "https://efa.mvv-muenchen.de/index.html?name_origin=de:09162:1490",
    "location_type": "0",
    "parent_station": "de:09162:1490",
    "platform_code": "Gleis 1 Ri Forstenrieder Allee"
  },
  {
    "stop_id": "de:09162:1490:51:52",
    "stop_code": "",
    "stop_name": "Basler Straße Gleis 2 Ri Fürstenried West",
    "stop_lat": "48.0909077",
    "stop_lon": "11.4906741",
    "stop_url": "https://efa.mvv-muenchen.de/index.html?name_origin=de:09162:1490",
    "location_type": "0",
    "parent_station": "de:09162:1490",
    "platform_code": "Gleis 2 Ri Fürstenried West"
  },
  {
    "stop_id": "de:09162:150:51:51",
    "stop_code": "",
    "stop_name": "Fraunhoferstraße Gleis 1 Ri Sendlinger Tor",
    "stop_lat": "48.1294153",
    "stop_lon": "11.5742085",
    "stop_url": "https://efa.mvv-muenchen.de/index.html?name_origin=de:09162:150",
    "location_type": "0",
    "parent_station": "de:09162:150",
    "platform_code": "Gleis 1 Ri Sendlinger Tor"
  },
  {
    "stop_id": "de:09162:150:51:52",
    "stop_code": "",
    "stop_name": "Fraunhoferstraße Gleis 2 Ri Kolumbusplatz",
    "stop_lat": "48.1293433",
    "stop_lon": "11.5741366",
    "stop_url": "https://efa.mvv-muenchen.de/index.html?name_origin=de:09162:150",
    "location_type": "0",
    "parent_station": "de:09162:150",
    "platform_code": "Gleis 2 Ri Kolumbusplatz"
  },
  {
    "stop_id": "de:09162:1500:51:51",
    "stop_code": "",
    "stop_name": "Fürstenried West Gleis 1 Ri Basler Straße",
    "stop_lat": "48.0884776",
    "stop_lon": "11.4802537",
    "stop_url": "https://efa.mvv-muenchen.de/index.html?name_origin=de:09162:1500",
    "location_type": "0",
    "parent_station": "de:09162:1500",
    "platform_code": "Gleis 1 Ri Basler Straße"
  },
  {
    "stop_id": "de:09162:1500:51:52",
    "stop_code": "",
    "stop_name": "Fürstenried West Gleis 2 Ausstieg",
    "stop_lat": "48.0885496",
    "stop_lon": "11.4803166",
    "stop_url": "https://efa.mvv-muenchen.de/index.html?name_origin=de:09162:1500",
    "location_type": "0",
    "parent_station": "de:09162:1500",
    "platform_code": "Gleis 2 Ausstieg"
  },
  {
    "stop_id": "de:09162:1510:51:51",
    "stop_code": "",
    "stop_name": "Holzapfelkreuth Gleis 1 Ri Westpark",
    "stop_lat": "48.1162648",
    "stop_lon": "11.5018492",
    "stop_url": "https://efa.mvv-muenchen.de/index.html?name_origin=de:09162:1510",
    "location_type": "0",
    "parent_station": "de:09162:1510",
    "platform_code": "Gleis 1 Ri Westpark"
  },
  {
    "stop_id": "de:09162:1510:51:52",
    "stop_code": "",
    "stop_name": "Holzapfelkreuth Gleis 2 Ri Haderner Stern",
    "stop_lat": "48.1163547",
    "stop_lon": "11.5018492",
    "stop_url": "https://efa.mvv-muenchen.de/index.html?name_origin=de:09162:1510",
    "location_type": "0",
    "parent_station": "de:09162:1510",
    "platform_code": "Gleis 2 Ri Haderner Stern"
  },
  {
    "stop_id": "de:09162:1520:51:51",
    "stop_code": "",
    "stop_name": "Haderner Stern Gleis 1 Ri Holzapfelkreuth",
    "stop_lat": "48.1183338",
    "stop_lon": "11.4890302",
    "stop_url": "https://efa.mvv-muenchen.de/index.html?name_origin=de:09162:1520",
    "location_type": "0",
    "parent_station": "de:09162:1520",
    "platform_code": "Gleis 1 Ri Holzapfelkreuth"
  },
  {
    "stop_id": "de:09162:1520:51:52",
    "stop_code": "",
    "stop_name": "Haderner Stern Gleis 2 Ri Großhadern",
    "stop_lat": "48.1184238",
    "stop_lon": "11.4890302",
    "stop_url": "https://efa.mvv-muenchen.de/index.html?name_origin=de:09162:1520",
    "location_type": "0",
    "parent_station": "de:09162:1520",
    "platform_code": "Gleis 2 Ri Großhadern"
  },
  {
    "stop_id": "de:09162:1530:51:51",
    "stop_code": "",
    "stop_name": "Großhadern Gleis 1 Ri Haderner Stern",
    "stop_lat": "48.1146934",
    "stop_lon": "11.4770826",
    "stop_url": "https://efa.mvv-muenchen.de/index.html?name_origin=de:09162:1530",
    "location_type": "0",
    "parent_station": "de:09162:1530",
    "platform_code": "Gleis 1 Ri Haderner Stern"
  },
  {
    "stop_id": "de:09162:1530:51:52",
    "stop_code": "",
    "stop_name": "Großhadern Gleis 2 Ri Klinikum Großhadern",
    "stop_lat": "48.1146994",
    "stop_lon": "11.4769748",
    "stop_url": "https://efa.mvv-muenchen.de/index.html?name_origin=de:09162:1530",
    "location_type": "0",
    "parent_station": "de:09162:1530",
    "platform_code": "Gleis 2 Ri Klinikum Großhadern"
  },
  {
    "stop_id": "de:09162:1540:51:51",
    "stop_code": "",
    "stop_name": "Klinikum Großhadern Gleis 1 Ri Großhadern",
    "stop_lat": "48.1090315",
    "stop_lon": "11.473714",
    "stop_url": "https://efa.mvv-muenchen.de/index.html?name_origin=de:09162:1540",
    "location_type": "0",
    "parent_station": "de:09162:1540",
    "platform_code": "Gleis 1 Ri Großhadern"
  },
  {
    "stop_id": "de:09162:1540:51:52",
    "stop_code": "",
    "stop_name": "Klinikum Großhadern Gleis 2 Ausstieg",
    "stop_lat": "48.1091574",
    "stop_lon": "11.4736062",
    "stop_url": "https://efa.mvv-muenchen.de/index.html?name_origin=de:09162:1540",
    "location_type": "0",
    "parent_station": "de:09162:1540",
    "platform_code": "Gleis 2 Ausstieg"
  },
  {
    "stop_id": "de:09162:160:51:51",
    "stop_code": "",
    "stop_name": "Kolumbusplatz U2 Gleis 1 Ri Fraunhofer",
    "stop_lat": "48.119959",
    "stop_lon": "11.5767058",
    "stop_url": "https://efa.mvv-muenchen.de/index.html?name_origin=de:09162:160",
    "location_type": "0",
    "parent_station": "de:09162:160",
    "platform_code": "U2 Gleis 1 Ri Fraunhofer"
  },
  {
    "stop_id": "de:09162:160:51:53",
    "stop_code": "",
    "stop_name": "Kolumbusplatz U1 Gleis 3 Ri Fraunhoferstraße",
    "stop_lat": "48.119941",
    "stop_lon": "11.576598",
    "stop_url": "https://efa.mvv-muenchen.de/index.html?name_origin=de:09162:160",
    "location_type": "0",
    "parent_station": "de:09162:160",
    "platform_code": "U1 Gleis 3 Ri Fraunhoferstraße"
  },
  {
    "stop_id": "de:09162:160:52:52",
    "stop_code": "",
    "stop_name": "Kolumbusplatz U1/U2 Gleis 2 Ri Candidpl./Silberhornstr",
    "stop_lat": "48.119929",
    "stop_lon": "11.5764902",
    "stop_url": "https://efa.mvv-muenchen.de/index.html?name_origin=de:09162:160",
    "location_type": "0",
    "parent_station": "de:09162:160",
    "platform_code": "U1/U2 Gleis 2 Ri Candidpl./Silberhornstr"
  },
  {
    "stop_id": "de:09162:170:33:43",
    "stop_code": "",
    "stop_name": "Stiglmaierplatz",
    "stop_lat": "48.1468181",
    "stop_lon": "11.5590809",
    "stop_url": "https://efa.mvv-muenchen.de/index.html?name_origin=de:09162:170",
    "location_type": "0",
    "parent_station": "de:09162:170",
    "platform_code": ""
  },
  {
    "stop_id": "de:09162:170:37:77",
    "stop_code": "",
    "stop_name": "Stiglmaierplatz",
    "stop_lat": "48.1465364",
    "stop_lon": "11.5583891",
    "stop_url": "https://efa.mvv-muenchen.de/index.html?name_origin=de:09162:170",
    "location_type": "0",
    "parent_station": "de:09162:170",
    "platform_code": ""
  },
  {
    "stop_id": "de:09162:170:51:51",
    "stop_code": "",
    "stop_name": "Stiglmaierplatz Gleis 1 Ri Maillingerstraße",
    "stop_lat": "48.147933",
    "stop_lon": "11.5569698",
    "stop_url": "https://efa.mvv-muenchen.de/index.html?name_origin=de:09162:170",
    "location_type": "0",
    "parent_station": "de:09162:170",
    "platform_code": "Gleis 1 Ri Maillingerstraße"
  },
  {
    "stop_id": "de:09162:170:51:52",
    "stop_code": "",
    "stop_name": "Stiglmaierplatz Gleis 2 Ri Hauptbahnhof",
    "stop_lat": "48.1478611",
    "stop_lon": "11.5569429",
    "stop_url": "https://efa.mvv-muenchen.de/index.html?name_origin=de:09162:170",
    "location_type": "0",
    "parent_station": "de:09162:170",
    "platform_code": "Gleis 2 Ri Hauptbahnhof"
  },
  {
    "stop_id": "de:09162:180:31:41",
    "stop_code": "",
    "stop_name": "Maillingerstraße",
    "stop_lat": "48.1504023",
    "stop_lon": "11.5441598",
    "stop_url": "https://efa.mvv-muenchen.de/index.html?name_origin=de:09162:180",
    "location_type": "0",
    "parent_station": "de:09162:180",
    "platform_code": ""
  },
  {
    "stop_id": "de:09162:180:32:42",
    "stop_code": "",
    "stop_name": "Maillingerstraße",
    "stop_lat": "48.1502585",
    "stop_lon": "11.54407",
    "stop_url": "https://efa.mvv-muenchen.de/index.html?name_origin=de:09162:180",
    "location_type": "0",
    "parent_station": "de:09162:180",
    "platform_code": ""
  },
  {
    "stop_id": "de:09162:180:51:51",
    "stop_code": "",
    "stop_name": "Maillingerstraße Gleis 1 Ri Rotkreuzplatz",
    "stop_lat": "48.1499947",
    "stop_lon": "11.5457678",
    "stop_url": "https://efa.mvv-muenchen.de/index.html?name_origin=de:09162:180",
    "location_type": "0",
    "parent_station": "de:09162:180",
    "platform_code": "Gleis 1 Ri Rotkreuzplatz"
  },
  {
    "stop_id": "de:09162:180:51:52",
    "stop_code": "",
    "stop_name": "Maillingerstraße Gleis 2 Ri Stiglmaierplatz",
    "stop_lat": "48.1499108",
    "stop_lon": "11.5457229",
    "stop_url": "https://efa.mvv-muenchen.de/index.html?name_origin=de:09162:180",
    "location_type": "0",
    "parent_station": "de:09162:180",
    "platform_code": "Gleis 2 Ri Stiglmaierplatz"
  },
  {
    "stop_id": "de:09162:190:1:1",
    "stop_code": "",
    "stop_name": "Rotkreuzplatz",
    "stop_lat": "48.1528415",
    "stop_lon": "11.533937",
    "stop_url": "https://efa.mvv-muenchen.de/index.html?name_origin=de:09162:190",
    "location_type": "0",
    "parent_station": "de:09162:190",
    "platform_code": ""
  },
  {
    "stop_id": "de:09162:190:51:51",
    "stop_code": "",
    "stop_name": "Rotkreuzplatz Gleis 1 Ri Gern",
    "stop_lat": "48.15416",
    "stop_lon": "11.5330656",
    "stop_url": "https://efa.mvv-muenchen.de/index.html?name_origin=de:09162:190",
    "location_type": "0",
    "parent_station": "de:09162:190",
    "platform_code": "Gleis 1 Ri Gern"
  },
  {
    "stop_id": "de:09162:190:51:52",
    "stop_code": "",
    "stop_name": "Rotkreuzplatz Gleis 2 Ri Maillingerstraße",
    "stop_lat": "48.154136",
    "stop_lon": "11.5329489",
    "stop_url": "https://efa.mvv-muenchen.de/index.html?name_origin=de:09162:190",
    "location_type": "0",
    "parent_station": "de:09162:190",
    "platform_code": "Gleis 2 Ri Maillingerstraße"
  },
  {
    "stop_id": "de:09162:190:6:6",
    "stop_code": "",
    "stop_name": "Rotkreuzplatz",
    "stop_lat": "48.1526617",
    "stop_lon": "11.5337753",
    "stop_url": "https://efa.mvv-muenchen.de/index.html?name_origin=de:09162:190",
    "location_type": "0",
    "parent_station": "de:09162:190",
    "platform_code": ""
  },
  {
    "stop_id": "de:09162:2:51:51",
    "stop_code": "",
    "stop_name": "Marienplatz U-Bahn Gleis 1 Ri Odeonsplatz",
    "stop_lat": "48.1376828",
    "stop_lon": "11.5764543",
    "stop_url": "https://efa.mvv-muenchen.de/index.html?name_origin=de:09162:2",
    "location_type": "0",
    "parent_station": "de:09162:2",
    "platform_code": "U-Bahn Gleis 1 Ri Odeonsplatz"
  },
  {
    "stop_id": "de:09162:2:52:52",
    "stop_code": "",
    "stop_name": "Marienplatz U-Bahn Gleis 2 Ri Sendlinger Tor",
    "stop_lat": "48.1379826",
    "stop_lon": "11.5752865",
    "stop_url": "https://efa.mvv-muenchen.de/index.html?name_origin=de:09162:2",
    "location_type": "0",
    "parent_station": "de:09162:2",
    "platform_code": "U-Bahn Gleis 2 Ri Sendlinger Tor"
  },
  {
    "stop_id": "de:09162:200:1:4",
    "stop_code": "",
    "stop_name": "Westfriedhof",
    "stop_lat": "48.1692599",
    "stop_lon": "11.5279183",
    "stop_url": "https://efa.mvv-muenchen.de/index.html?name_origin=de:09162:200",
    "location_type": "0",
    "parent_station": "de:09162:200",
    "platform_code": ""
  },
  {
    "stop_id": "de:09162:200:1:7",
    "stop_code": "",
    "stop_name": "Westfriedhof",
    "stop_lat": "48.1693798",
    "stop_lon": "11.5282147",
    "stop_url": "https://efa.mvv-muenchen.de/index.html?name_origin=de:09162:200",
    "location_type": "0",
    "parent_station": "de:09162:200",
    "platform_code": ""
  },
  {
    "stop_id": "de:09162:200:51:51",
    "stop_code": "",
    "stop_name": "Westfriedhof Gleis 1 Ri Georg-Brauchle-Ring",
    "stop_lat": "48.1704102",
    "stop_lon": "11.5285291",
    "stop_url": "https://efa.mvv-muenchen.de/index.html?name_origin=de:09162:200",
    "location_type": "0",
    "parent_station": "de:09162:200",
    "platform_code": "Gleis 1 Ri Georg-Brauchle-Ring"
  },
  {
    "stop_id": "de:09162:200:51:52",
    "stop_code": "",
    "stop_name": "Westfriedhof Gleis 2 Ri Gern",
    "stop_lat": "48.1704042",
    "stop_lon": "11.5283944",
    "stop_url": "https://efa.mvv-muenchen.de/index.html?name_origin=de:09162:200",
    "location_type": "0",
    "parent_station": "de:09162:200",
    "platform_code": "Gleis 2 Ri Gern"
  },
  {
    "stop_id": "de:09162:204:1:1",
    "stop_code": "",
    "stop_name": "Neuhausen",
    "stop_lat": "48.1563593",
    "stop_lon": "11.5314936",
    "stop_url": "https://efa.mvv-muenchen.de/index.html?name_origin=de:09162:204",
    "location_type": "0",
    "parent_station": "de:09162:204",
    "platform_code": ""
  },
  {
    "stop_id": "de:09162:204:4:4",
    "stop_code": "",
    "stop_name": "Neuhausen",
    "stop_lat": "48.1563653",
    "stop_lon": "11.5314397",
    "stop_url": "https://efa.mvv-muenchen.de/index.html?name_origin=de:09162:204",
    "location_type": "0",
    "parent_station": "de:09162:204",
    "platform_code": ""
  },
  {
    "stop_id": "de:09162:205:32:72",
    "stop_code": "",
    "stop_name": "Volkartstraße",
    "stop_lat": "48.1547833",
    "stop_lon": "11.5329578",
    "stop_url": "https://efa.mvv-muenchen.de/index.html?name_origin=de:09162:205",
    "location_type": "0",
    "parent_station": "de:09162:205",
    "platform_code": ""
  },
  {
    "stop_id": "de:09162:205:71:71",
    "stop_code": "",
    "stop_name": "Volkartstraße",
    "stop_lat": "48.1551488",
    "stop_lon": "11.5324548",
    "stop_url": "https://efa.mvv-muenchen.de/index.html?name_origin=de:09162:205",
    "location_type": "0",
    "parent_station": "de:09162:205",
    "platform_code": ""
  },
  {
    "stop_id": "de:09162:240:51:51",
    "stop_code": "",
    "stop_name": "Theresienwiese Gleis 1 Ri Schwanthalerhöhe",
    "stop_lat": "48.1357165",
    "stop_lon": "11.5521279",
    "stop_url": "https://efa.mvv-muenchen.de/index.html?name_origin=de:09162:240",
    "location_type": "0",
    "parent_station": "de:09162:240",
    "platform_code": "Gleis 1 Ri Schwanthalerhöhe"
  },
  {
    "stop_id": "de:09162:240:51:52",
    "stop_code": "",
    "stop_name": "Theresienwiese Gleis 2 Ri Hauptbahnhof",
    "stop_lat": "48.1356026",
    "stop_lon": "11.5522896",
    "stop_url": "https://efa.mvv-muenchen.de/index.html?name_origin=de:09162:240",
    "location_type": "0",
    "parent_station": "de:09162:240",
    "platform_code": "Gleis 2 Ri Hauptbahnhof"
  },
  {
    "stop_id": "de:09162:250:51:51",
    "stop_code": "",
    "stop_name": "Schwanthalerhöhe Gleis 1 Ri Heimeranplatz",
    "stop_lat": "48.133834",
    "stop_lon": "11.5410876",
    "stop_url": "https://efa.mvv-muenchen.de/index.html?name_origin=de:09162:250",
    "location_type": "0",
    "parent_station": "de:09162:250",
    "platform_code": "Gleis 1 Ri Heimeranplatz"
  },
  {
    "stop_id": "de:09162:250:51:52",
    "stop_code": "",
    "stop_name": "Schwanthalerhöhe Gleis 2 Ri Theresienwiese",
    "stop_lat": "48.1337321",
    "stop_lon": "11.5410876",
    "stop_url": "https://efa.mvv-muenchen.de/index.html?name_origin=de:09162:250",
    "location_type": "0",
    "parent_station": "de:09162:250",
    "platform_code": "Gleis 2 Ri Theresienwiese"
  },
  {
    "stop_id": "de:09162:260:51:51",
    "stop_code": "",
    "stop_name": "Westendstraße Gleis 1",
    "stop_lat": "48.1347692",
    "stop_lon": "11.5214325",
    "stop_url": "https://efa.mvv-muenchen.de/index.html?name_origin=de:09162:260",
    "location_type": "0",
    "parent_station": "de:09162:260",
    "platform_code": "Gleis 1"
  },
  {
    "stop_id": "de:09162:260:51:52",
    "stop_code": "",
    "stop_name": "Westendstraße Gleis 2",
    "stop_lat": "48.1346973",
    "stop_lon": "11.5214325",
    "stop_url": "https://efa.mvv-muenchen.de/index.html?name_origin=de:09162:260",
    "location_type": "0",
    "parent_station": "de:09162:260",
    "platform_code": "Gleis 2"
  },
  {
    "stop_id": "de:09162:270:51:51",
    "stop_code": "",
    "stop_name": "Friedenheimer Straße Gleis 1 Ri Laimer Platz",
    "stop_lat": "48.1351709",
    "stop_lon": "11.5107335",
    "stop_url": "https://efa.mvv-muenchen.de/index.html?name_origin=de:09162:270",
    "location_type": "0",
    "parent_station": "de:09162:270",
    "platform_code": "Gleis 1 Ri Laimer Platz"
  },
  {
    "stop_id": "de:09162:270:51:52",
    "stop_code": "",
    "stop_name": "Friedenheimer Straße Gleis 2 Ri Westendstraße",
    "stop_lat": "48.135081",
    "stop_lon": "11.5107335",
    "stop_url": "https://efa.mvv-muenchen.de/index.html?name_origin=de:09162:270",
    "location_type": "0",
    "parent_station": "de:09162:270",
    "platform_code": "Gleis 2 Ri Westendstraße"
  },
  {
    "stop_id": "de:09162:280:51:51",
    "stop_code": "",
    "stop_name": "Laimer Platz Gleis 1 Ausstieg",
    "stop_lat": "48.1355006",
    "stop_lon": "11.5019211",
    "stop_url": "https://efa.mvv-muenchen.de/index.html?name_origin=de:09162:280",
    "location_type": "0",
    "parent_station": "de:09162:280",
    "platform_code": "Gleis 1 Ausstieg"
  },
  {
    "stop_id": "de:09162:280:51:52",
    "stop_code": "",
    "stop_name": "Laimer Platz Gleis 2 Ri Friedenheimer Straße",
    "stop_lat": "48.1354287",
    "stop_lon": "11.5019211",
    "stop_url": "https://efa.mvv-muenchen.de/index.html?name_origin=de:09162:280",
    "location_type": "0",
    "parent_station": "de:09162:280",
    "platform_code": "Gleis 2 Ri Friedenheimer Straße"
  },
  {
    "stop_id": "de:09162:30:51:51",
    "stop_code": "",
    "stop_name": "Poccistraße Gleis 1 Ri Goetheplatz",
    "stop_lat": "48.1255958",
    "stop_lon": "11.5505109",
    "stop_url": "https://efa.mvv-muenchen.de/index.html?name_origin=de:09162:30",
    "location_type": "0",
    "parent_station": "de:09162:30",
    "platform_code": "Gleis 1 Ri Goetheplatz"
  },
  {
    "stop_id": "de:09162:30:51:52",
    "stop_code": "",
    "stop_name": "Poccistraße Gleis 2 Ri Implerstraße",
    "stop_lat": "48.1256498",
    "stop_lon": "11.550457",
    "stop_url": "https://efa.mvv-muenchen.de/index.html?name_origin=de:09162:30",
    "location_type": "0",
    "parent_station": "de:09162:30",
    "platform_code": "Gleis 2 Ri Implerstraße"
  },
  {
    "stop_id": "de:09162:300:51:51",
    "stop_code": "",
    "stop_name": "Moosach U-Bahn Gleis 1 Ausstieg",
    "stop_lat": "48.1810432",
    "stop_lon": "11.5081643",
    "stop_url": "https://efa.mvv-muenchen.de/index.html?name_origin=de:09162:300",
    "location_type": "0",
    "parent_station": "de:09162:300",
    "platform_code": "U-Bahn Gleis 1 Ausstieg"
  },
  {
    "stop_id": "de:09162:300:51:52",
    "stop_code": "",
    "stop_name": "Moosach U-Bahn Gleis 2 Ri Moosacher St.-Martins",
    "stop_lat": "48.1808934",
    "stop_lon": "11.5081823",
    "stop_url": "https://efa.mvv-muenchen.de/index.html?name_origin=de:09162:300",
    "location_type": "0",
    "parent_station": "de:09162:300",
    "platform_code": "U-Bahn Gleis 2 Ri Moosacher St.-Martins"
  },
  {
    "stop_id": "de:09162:304:1:1",
    "stop_code": "",
    "stop_name": "Hanauer Straße",
    "stop_lat": "48.1717582",
    "stop_lon": "11.5285651",
    "stop_url": "https://efa.mvv-muenchen.de/index.html?name_origin=de:09162:304",
    "location_type": "0",
    "parent_station": "de:09162:304",
    "platform_code": ""
  },
  {
    "stop_id": "de:09162:304:1:2",
    "stop_code": "",
    "stop_name": "Hanauer Straße",
    "stop_lat": "48.1718421",
    "stop_lon": "11.5286549",
    "stop_url": "https://efa.mvv-muenchen.de/index.html?name_origin=de:09162:304",
    "location_type": "0",
    "parent_station": "de:09162:304",
    "platform_code": ""
  },
  {
    "stop_id": "de:09162:312:4:4",
    "stop_code": "",
    "stop_name": "Georg-Brauchle-Ring",
    "stop_lat": "48.1768442",
    "stop_lon": "11.5292748",
    "stop_url": "https://efa.mvv-muenchen.de/index.html?name_origin=de:09162:312",
    "location_type": "0",
    "parent_station": "de:09162:312",
    "platform_code": ""
  },
  {
    "stop_id": "de:09162:312:51:51",
    "stop_code": "",
    "stop_name": "Georg-Brauchle-Ring Gleis 1",
    "stop_lat": "48.1774312",
    "stop_lon": "11.529122",
    "stop_url": "https://efa.mvv-muenchen.de/index.html?name_origin=de:09162:312",
    "location_type": "0",
    "parent_station": "de:09162:312",
    "platform_code": "Gleis 1"
  },
  {
    "stop_id": "de:09162:312:51:52",
    "stop_code": "",
    "stop_name": "Georg-Brauchle-Ring Gleis 2",
    "stop_lat": "48.1774252",
    "stop_lon": "11.5289873",
    "stop_url": "https://efa.mvv-muenchen.de/index.html?name_origin=de:09162:312",
    "location_type": "0",
    "parent_station": "de:09162:312",
    "platform_code": "Gleis 2"
  },
  {
    "stop_id": "de:09162:312:7:7",
    "stop_code": "",
    "stop_name": "Georg-Brauchle-Ring",
    "stop_lat": "48.1761014",
    "stop_lon": "11.5290412",
    "stop_url": "https://efa.mvv-muenchen.de/index.html?name_origin=de:09162:312",
    "location_type": "0",
    "parent_station": "de:09162:312",
    "platform_code": ""
  },
  {
    "stop_id": "de:09162:320:51:51",
    "stop_code": "",
    "stop_name": "Feldmoching U-Bahn Gleis 1 Ausstieg",
    "stop_lat": "48.2138746",
    "stop_lon": "11.5410247",
    "stop_url": "https://efa.mvv-muenchen.de/index.html?name_origin=de:09162:320",
    "location_type": "0",
    "parent_station": "de:09162:320",
    "platform_code": "U-Bahn Gleis 1 Ausstieg"
  },
  {
    "stop_id": "de:09162:320:51:52",
    "stop_code": "",
    "stop_name": "Feldmoching U-Bahn Gleis 2 Ri Hasenbergl",
    "stop_lat": "48.2137369",
    "stop_lon": "11.5410157",
    "stop_url": "https://efa.mvv-muenchen.de/index.html?name_origin=de:09162:320",
    "location_type": "0",
    "parent_station": "de:09162:320",
    "platform_code": "U-Bahn Gleis 2 Ri Hasenbergl"
  },
  {
    "stop_id": "de:09162:340:51:51",
    "stop_code": "",
    "stop_name": "Petuelring Gleis 1 Ri Olympiazentrum",
    "stop_lat": "48.1756761",
    "stop_lon": "11.5658182",
    "stop_url": "https://efa.mvv-muenchen.de/index.html?name_origin=de:09162:340",
    "location_type": "0",
    "parent_station": "de:09162:340",
    "platform_code": "Gleis 1 Ri Olympiazentrum"
  },
  {
    "stop_id": "de:09162:340:51:52",
    "stop_code": "",
    "stop_name": "Petuelring Gleis 2 Ri Scheidplatz",
    "stop_lat": "48.1756641",
    "stop_lon": "11.565926",
    "stop_url": "https://efa.mvv-muenchen.de/index.html?name_origin=de:09162:340",
    "location_type": "0",
    "parent_station": "de:09162:340",
    "platform_code": "Gleis 2 Ri Scheidplatz"
  },
  {
    "stop_id": "de:09162:350:51:51",
    "stop_code": "",
    "stop_name": "Olympiazentrum U3 Gleis 1 Ri Oberwiesenfeld",
    "stop_lat": "48.1793421",
    "stop_lon": "11.5561074",
    "stop_url": "https://efa.mvv-muenchen.de/index.html?name_origin=de:09162:350",
    "location_type": "0",
    "parent_station": "de:09162:350",
    "platform_code": "U3 Gleis 1 Ri Oberwiesenfeld"
  },
  {
    "stop_id": "de:09162:350:51:53",
    "stop_code": "",
    "stop_name": "Olympiazentrum U8 Gleis 3 Ausstieg",
    "stop_lat": "48.1793061",
    "stop_lon": "11.5559817",
    "stop_url": "https://efa.mvv-muenchen.de/index.html?name_origin=de:09162:350",
    "location_type": "0",
    "parent_station": "de:09162:350",
    "platform_code": "U8 Gleis 3 Ausstieg"
  },
  {
    "stop_id": "de:09162:350:52:52",
    "stop_code": "",
    "stop_name": "Olympiazentrum U3 Gleis 2 Ri Petuelring",
    "stop_lat": "48.1792762",
    "stop_lon": "11.5557391",
    "stop_url": "https://efa.mvv-muenchen.de/index.html?name_origin=de:09162:350",
    "location_type": "0",
    "parent_station": "de:09162:350",
    "platform_code": "U3 Gleis 2 Ri Petuelring"
  },
  {
    "stop_id": "de:09162:350:52:54",
    "stop_code": "",
    "stop_name": "Olympiazentrum U8 Gleis 4 Ri Petuelring",
    "stop_lat": "48.1793001",
    "stop_lon": "11.5558739",
    "stop_url": "https://efa.mvv-muenchen.de/index.html?name_origin=de:09162:350",
    "location_type": "0",
    "parent_station": "de:09162:350",
    "platform_code": "U8 Gleis 4 Ri Petuelring"
  },
  {
    "stop_id": "de:09162:360:3:3",
    "stop_code": "",
    "stop_name": "Olympia-Einkaufszentrum",
    "stop_lat": "48.1820435",
    "stop_lon": "11.5299215",
    "stop_url": "https://efa.mvv-muenchen.de/index.html?name_origin=de:09162:360",
    "location_type": "0",
    "parent_station": "de:09162:360",
    "platform_code": ""
  },
  {
    "stop_id": "de:09162:360:51:51",
    "stop_code": "",
    "stop_name": "Olympia-Einkaufszentrum U1 Gleis 1",
    "stop_lat": "48.1827562",
    "stop_lon": "11.5303078",
    "stop_url": "https://efa.mvv-muenchen.de/index.html?name_origin=de:09162:360",
    "location_type": "0",
    "parent_station": "de:09162:360",
    "platform_code": "U1 Gleis 1"
  },
  {
    "stop_id": "de:09162:360:52:52",
    "stop_code": "",
    "stop_name": "Olympia-Einkaufszentrum U1 Gleis 2",
    "stop_lat": "48.1827862",
    "stop_lon": "11.5302449",
    "stop_url": "https://efa.mvv-muenchen.de/index.html?name_origin=de:09162:360",
    "location_type": "0",
    "parent_station": "de:09162:360",
    "platform_code": "U1 Gleis 2"
  },
  {
    "stop_id": "de:09162:360:53:53",
    "stop_code": "",
    "stop_name": "Olympia-Einkaufszentrum U3 Gleis 1",
    "stop_lat": "48.1821633",
    "stop_lon": "11.5308648",
    "stop_url": "https://efa.mvv-muenchen.de/index.html?name_origin=de:09162:360",
    "location_type": "0",
    "parent_station": "de:09162:360",
    "platform_code": "U3 Gleis 1"
  },
  {
    "stop_id": "de:09162:360:53:54",
    "stop_code": "",
    "stop_name": "Olympia-Einkaufszentrum U3 Gleis 2",
    "stop_lat": "48.1820854",
    "stop_lon": "11.5308648",
    "stop_url": "https://efa.mvv-muenchen.de/index.html?name_origin=de:09162:360",
    "location_type": "0",
    "parent_station": "de:09162:360",
    "platform_code": "U3 Gleis 2"
  },
  {
    "stop_id": "de:09162:370:51:51",
    "stop_code": "",
    "stop_name": "Moosacher St.-Martins-Platz Gleis 1 Ri Moosach Bf",
    "stop_lat": "48.1818757",
    "stop_lon": "11.5187285",
    "stop_url": "https://efa.mvv-muenchen.de/index.html?name_origin=de:09162:370",
    "location_type": "0",
    "parent_station": "de:09162:370",
    "platform_code": "Gleis 1 Ri Moosach Bf"
  },
  {
    "stop_id": "de:09162:370:51:52",
    "stop_code": "",
    "stop_name": "Moosacher St.-Martins-Platz Gleis 2 Ri Olympia-Einkaufszentrum",
    "stop_lat": "48.1817859",
    "stop_lon": "11.5187375",
    "stop_url": "https://efa.mvv-muenchen.de/index.html?name_origin=de:09162:370",
    "location_type": "0",
    "parent_station": "de:09162:370",
    "platform_code": "Gleis 2 Ri Olympia-Einkaufszentrum"
  },
  {
    "stop_id": "de:09162:380:51:51",
    "stop_code": "",
    "stop_name": "Oberwiesenfeld Gleis 1 Ri Olympia-Einkaufszentrum",
    "stop_lat": "48.1860384",
    "stop_lon": "11.5475734",
    "stop_url": "https://efa.mvv-muenchen.de/index.html?name_origin=de:09162:380",
    "location_type": "0",
    "parent_station": "de:09162:380",
    "platform_code": "Gleis 1 Ri Olympia-Einkaufszentrum"
  },
  {
    "stop_id": "de:09162:380:51:52",
    "stop_code": "",
    "stop_name": "Oberwiesenfeld Gleis 2 Ri Olympiazentrum",
    "stop_lat": "48.1859486",
    "stop_lon": "11.5475734",
    "stop_url": "https://efa.mvv-muenchen.de/index.html?name_origin=de:09162:380",
    "location_type": "0",
    "parent_station": "de:09162:380",
    "platform_code": "Gleis 2 Ri Olympiazentrum"
  },
  {
    "stop_id": "de:09162:40:51:51",
    "stop_code": "",
    "stop_name": "Goetheplatz Gleis 1 Ri Sendlinger Tor",
    "stop_lat": "48.1290375",
    "stop_lon": "11.5574459",
    "stop_url": "https://efa.mvv-muenchen.de/index.html?name_origin=de:09162:40",
    "location_type": "0",
    "parent_station": "de:09162:40",
    "platform_code": "Gleis 1 Ri Sendlinger Tor"
  },
  {
    "stop_id": "de:09162:40:51:52",
    "stop_code": "",
    "stop_name": "Goetheplatz Gleis 2 Ri Poccistraße",
    "stop_lat": "48.1290915",
    "stop_lon": "11.557392",
    "stop_url": "https://efa.mvv-muenchen.de/index.html?name_origin=de:09162:40",
    "location_type": "0",
    "parent_station": "de:09162:40",
    "platform_code": "Gleis 2 Ri Poccistraße"
  },
  {
    "stop_id": "de:09162:400:51:51",
    "stop_code": "",
    "stop_name": "Scheidplatz U3 Gleis 1 Ri Petuelring",
    "stop_lat": "48.1715844",
    "stop_lon": "11.5730137",
    "stop_url": "https://efa.mvv-muenchen.de/index.html?name_origin=de:09162:400",
    "location_type": "0",
    "parent_station": "de:09162:400",
    "platform_code": "U3 Gleis 1 Ri Petuelring"
  },
  {
    "stop_id": "de:09162:400:51:53",
    "stop_code": "",
    "stop_name": "Scheidplatz U2 Gleis 3 Ri Milbertshofen",
    "stop_lat": "48.1715964",
    "stop_lon": "11.572861",
    "stop_url": "https://efa.mvv-muenchen.de/index.html?name_origin=de:09162:400",
    "location_type": "0",
    "parent_station": "de:09162:400",
    "platform_code": "U2 Gleis 3 Ri Milbertshofen"
  },
  {
    "stop_id": "de:09162:400:52:52",
    "stop_code": "",
    "stop_name": "Scheidplatz U3 Gleis 2 Ri Bonner Platz",
    "stop_lat": "48.1715904",
    "stop_lon": "11.5726813",
    "stop_url": "https://efa.mvv-muenchen.de/index.html?name_origin=de:09162:400",
    "location_type": "0",
    "parent_station": "de:09162:400",
    "platform_code": "U3 Gleis 2 Ri Bonner Platz"
  },
  {
    "stop_id": "de:09162:400:52:54",
    "stop_code": "",
    "stop_name": "Scheidplatz U2 Gleis 4 Ri Hohenzollernplatz",
    "stop_lat": "48.1715904",
    "stop_lon": "11.5727891",
    "stop_url": "https://efa.mvv-muenchen.de/index.html?name_origin=de:09162:400",
    "location_type": "0",
    "parent_station": "de:09162:400",
    "platform_code": "U2 Gleis 4 Ri Hohenzollernplatz"
  },
  {
    "stop_id": "de:09162:410:51:51",
    "stop_code": "",
    "stop_name": "Bonner Platz Gleis 1 Ri Scheidplatz",
    "stop_lat": "48.1667256",
    "stop_lon": "11.578179",
    "stop_url": "https://efa.mvv-muenchen.de/index.html?name_origin=de:09162:410",
    "location_type": "0",
    "parent_station": "de:09162:410",
    "platform_code": "Gleis 1 Ri Scheidplatz"
  },
  {
    "stop_id": "de:09162:410:51:52",
    "stop_code": "",
    "stop_name": "Bonner Platz Gleis 2 Ri Münchner Freiheit",
    "stop_lat": "48.1666357",
    "stop_lon": "11.5781701",
    "stop_url": "https://efa.mvv-muenchen.de/index.html?name_origin=de:09162:410",
    "location_type": "0",
    "parent_station": "de:09162:410",
    "platform_code": "Gleis 2 Ri Münchner Freiheit"
  },
  {
    "stop_id": "de:09162:420:51:51",
    "stop_code": "",
    "stop_name": "Freimann Gleis 1 Ri Kieferngarten",
    "stop_lat": "48.1920093",
    "stop_lon": "11.6143991",
    "stop_url": "https://efa.mvv-muenchen.de/index.html?name_origin=de:09162:420",
    "location_type": "0",
    "parent_station": "de:09162:420",
    "platform_code": "Gleis 1 Ri Kieferngarten"
  },
  {
    "stop_id": "de:09162:420:51:52",
    "stop_code": "",
    "stop_name": "Freimann Gleis 2 Ri Studentenstadt",
    "stop_lat": "48.1920512",
    "stop_lon": "11.6142464",
    "stop_url": "https://efa.mvv-muenchen.de/index.html?name_origin=de:09162:420",
    "location_type": "0",
    "parent_station": "de:09162:420",
    "platform_code": "Gleis 2 Ri Studentenstadt"
  },
  {
    "stop_id": "de:09162:430:51:51",
    "stop_code": "",
    "stop_name": "Kieferngarten Gleis 1 Ri Fröttmaning",
    "stop_lat": "48.2037933",
    "stop_lon": "11.6132582",
    "stop_url": "https://efa.mvv-muenchen.de/index.html?name_origin=de:09162:430",
    "location_type": "0",
    "parent_station": "de:09162:430",
    "platform_code": "Gleis 1 Ri Fröttmaning"
  },
  {
    "stop_id": "de:09162:430:51:53",
    "stop_code": "",
    "stop_name": "Kieferngarten Gleis 3 Ri Fröttmaning",
    "stop_lat": "48.2037753",
    "stop_lon": "11.6133481",
    "stop_url": "https://efa.mvv-muenchen.de/index.html?name_origin=de:09162:430",
    "location_type": "0",
    "parent_station": "de:09162:430",
    "platform_code": "Gleis 3 Ri Fröttmaning"
  },
  {
    "stop_id": "de:09162:430:52:52",
    "stop_code": "",
    "stop_name": "Kieferngarten Gleis 2 Ri Freimann",
    "stop_lat": "48.2038232",
    "stop_lon": "11.6130786",
    "stop_url": "https://efa.mvv-muenchen.de/index.html?name_origin=de:09162:430",
    "location_type": "0",
    "parent_station": "de:09162:430",
    "platform_code": "Gleis 2 Ri Freimann"
  },
  {
    "stop_id": "de:09162:430:52:54",
    "stop_code": "",
    "stop_name": "Kieferngarten Gleis 4 Ri Freimann",
    "stop_lat": "48.2038053",
    "stop_lon": "11.6131774",
    "stop_url": "https://efa.mvv-muenchen.de/index.html?name_origin=de:09162:430",
    "location_type": "0",
    "parent_station": "de:09162:430",
    "platform_code": "Gleis 4 Ri Freimann"
  },
  {
    "stop_id": "de:09162:470:51:51",
    "stop_code": "",
    "stop_name": "Fröttmaning Gleis 1 Ri Garching-Hochbrück",
    "stop_lat": "48.2118753",
    "stop_lon": "11.6168964",
    "stop_url": "https://efa.mvv-muenchen.de/index.html?name_origin=de:09162:470",
    "location_type": "0",
    "parent_station": "de:09162:470",
    "platform_code": "Gleis 1 Ri Garching-Hochbrück"
  },
  {
    "stop_id": "de:09162:470:51:53",
    "stop_code": "",
    "stop_name": "Fröttmaning Gleis 3 Ri Garching-Hochbrück",
    "stop_lat": "48.2119112",
    "stop_lon": "11.6167796",
    "stop_url": "https://efa.mvv-muenchen.de/index.html?name_origin=de:09162:470",
    "location_type": "0",
    "parent_station": "de:09162:470",
    "platform_code": "Gleis 3 Ri Garching-Hochbrück"
  },
  {
    "stop_id": "de:09162:470:52:52",
    "stop_code": "",
    "stop_name": "Fröttmaning Gleis 2 Ri Kieferngarten",
    "stop_lat": "48.2119651",
    "stop_lon": "11.616564",
    "stop_url": "https://efa.mvv-muenchen.de/index.html?name_origin=de:09162:470",
    "location_type": "0",
    "parent_station": "de:09162:470",
    "platform_code": "Gleis 2 Ri Kieferngarten"
  },
  {
    "stop_id": "de:09162:470:52:54",
    "stop_code": "",
    "stop_name": "Fröttmaning Gleis 4 Ri Kieferngarten",
    "stop_lat": "48.2119291",
    "stop_lon": "11.6166718",
    "stop_url": "https://efa.mvv-muenchen.de/index.html?name_origin=de:09162:470",
    "location_type": "0",
    "parent_station": "de:09162:470",
    "platform_code": "Gleis 4 Ri Kieferngarten"
  },
  {
    "stop_id": "de:09162:5:51:51",
    "stop_code": "",
    "stop_name": "Ostbahnhof U-Bahn Gleis 1",
    "stop_lat": "48.1281441",
    "stop_lon": "11.6036732",
    "stop_url": "https://efa.mvv-muenchen.de/index.html?name_origin=de:09162:5",
    "location_type": "0",
    "parent_station": "de:09162:5",
    "platform_code": "U-Bahn Gleis 1"
  },
  {
    "stop_id": "de:09162:5:51:52",
    "stop_code": "",
    "stop_name": "Ostbahnhof U-Bahn Gleis 2",
    "stop_lat": "48.1281441",
    "stop_lon": "11.6035475",
    "stop_url": "https://efa.mvv-muenchen.de/index.html?name_origin=de:09162:5",
    "location_type": "0",
    "parent_station": "de:09162:5",
    "platform_code": "U-Bahn Gleis 2"
  },
  {
    "stop_id": "de:09162:50:51:51",
    "stop_code": "",
    "stop_name": "Sendlinger Tor U3/U6 Gleis 1 Ri Marienplatz",
    "stop_lat": "48.1334803",
    "stop_lon": "11.5671298",
    "stop_url": "https://efa.mvv-muenchen.de/index.html?name_origin=de:09162:50",
    "location_type": "0",
    "parent_station": "de:09162:50",
    "platform_code": "U3/U6 Gleis 1 Ri Marienplatz"
  },
  {
    "stop_id": "de:09162:50:51:52",
    "stop_code": "",
    "stop_name": "Sendlinger Tor U3/U6 Gleis 2 Ri Goetheplatz",
    "stop_lat": "48.1335462",
    "stop_lon": "11.566995",
    "stop_url": "https://efa.mvv-muenchen.de/index.html?name_origin=de:09162:50",
    "location_type": "0",
    "parent_station": "de:09162:50",
    "platform_code": "U3/U6 Gleis 2 Ri Goetheplatz"
  },
  {
    "stop_id": "de:09162:50:53:53",
    "stop_code": "",
    "stop_name": "Sendlinger Tor U1/U2/U7/U8 Gleis 1 Ri Hauptbahnhof",
    "stop_lat": "48.1336002",
    "stop_lon": "11.5672915",
    "stop_url": "https://efa.mvv-muenchen.de/index.html?name_origin=de:09162:50",
    "location_type": "0",
    "parent_station": "de:09162:50",
    "platform_code": "U1/U2/U7/U8 Gleis 1 Ri Hauptbahnhof"
  },
  {
    "stop_id": "de:09162:50:54:54",
    "stop_code": "",
    "stop_name": "Sendlinger Tor U1/U2/U7/U8 Gleis 2 Ri Fraunhoferstraße",
    "stop_lat": "48.1334143",
    "stop_lon": "11.5666357",
    "stop_url": "https://efa.mvv-muenchen.de/index.html?name_origin=de:09162:50",
    "location_type": "0",
    "parent_station": "de:09162:50",
    "platform_code": "U1/U2/U7/U8 Gleis 2 Ri Fraunhoferstraße"
  },
  {
    "stop_id": "de:09162:500:51:51",
    "stop_code": "",
    "stop_name": "Münchner Freiheit U6 Gleis 1 Ri Dietlindenstraße",
    "stop_lat": "48.1616087",
    "stop_lon": "11.5863268",
    "stop_url": "https://efa.mvv-muenchen.de/index.html?name_origin=de:09162:500",
    "location_type": "0",
    "parent_station": "de:09162:500",
    "platform_code": "U6 Gleis 1 Ri Dietlindenstraße"
  },
  {
    "stop_id": "de:09162:500:51:53",
    "stop_code": "",
    "stop_name": "Münchner Freiheit U3 Gleis 3 Ri Bonner Platz",
    "stop_lat": "48.1615847",
    "stop_lon": "11.5864885",
    "stop_url": "https://efa.mvv-muenchen.de/index.html?name_origin=de:09162:500",
    "location_type": "0",
    "parent_station": "de:09162:500",
    "platform_code": "U3 Gleis 3 Ri Bonner Platz"
  },
  {
    "stop_id": "de:09162:500:52:52",
    "stop_code": "",
    "stop_name": "Münchner Freiheit U6 Gleis 2 Ri Giselastraße",
    "stop_lat": "48.1615367",
    "stop_lon": "11.5862729",
    "stop_url": "https://efa.mvv-muenchen.de/index.html?name_origin=de:09162:500",
    "location_type": "0",
    "parent_station": "de:09162:500",
    "platform_code": "U6 Gleis 2 Ri Giselastraße"
  },
  {
    "stop_id": "de:09162:500:52:54",
    "stop_code": "",
    "stop_name": "Münchner Freiheit U3 Gleis 4 Ri Giselastraße",
    "stop_lat": "48.1615787",
    "stop_lon": "11.5860932",
    "stop_url": "https://efa.mvv-muenchen.de/index.html?name_origin=de:09162:500",
    "location_type": "0",
    "parent_station": "de:09162:500",
    "platform_code": "U3 Gleis 4 Ri Giselastraße"
  },
  {
    "stop_id": "de:09162:510:51:51",
    "stop_code": "",
    "stop_name": "Dietlindenstraße Gleis 1 Ri Nordfriedhof",
    "stop_lat": "48.1671091",
    "stop_lon": "11.5909082",
    "stop_url": "https://efa.mvv-muenchen.de/index.html?name_origin=de:09162:510",
    "location_type": "0",
    "parent_station": "de:09162:510",
    "platform_code": "Gleis 1 Ri Nordfriedhof"
  },
  {
    "stop_id": "de:09162:510:51:52",
    "stop_code": "",
    "stop_name": "Dietlindenstraße Gleis 2 Ri Münchner Freiheit",
    "stop_lat": "48.167151",
    "stop_lon": "11.5907824",
    "stop_url": "https://efa.mvv-muenchen.de/index.html?name_origin=de:09162:510",
    "location_type": "0",
    "parent_station": "de:09162:510",
    "platform_code": "Gleis 2 Ri Münchner Freiheit"
  },
  {
    "stop_id": "de:09162:520:51:51",
    "stop_code": "",
    "stop_name": "Nordfriedhof Gleis 1 Ri Alte Heide",
    "stop_lat": "48.1730282",
    "stop_lon": "11.596855",
    "stop_url": "https://efa.mvv-muenchen.de/index.html?name_origin=de:09162:520",
    "location_type": "0",
    "parent_station": "de:09162:520",
    "platform_code": "Gleis 1 Ri Alte Heide"
  },
  {
    "stop_id": "de:09162:520:52:52",
    "stop_code": "",
    "stop_name": "Nordfriedhof Gleis 2 Ri Dietlindenstraße",
    "stop_lat": "48.1730522",
    "stop_lon": "11.5967921",
    "stop_url": "https://efa.mvv-muenchen.de/index.html?name_origin=de:09162:520",
    "location_type": "0",
    "parent_station": "de:09162:520",
    "platform_code": "Gleis 2 Ri Dietlindenstraße"
  },
  {
    "stop_id": "de:09162:530:51:51",
    "stop_code": "",
    "stop_name": "Alte Heide Gleis 1 Ri Studentenstadt",
    "stop_lat": "48.1785933",
    "stop_lon": "11.602703",
    "stop_url": "https://efa.mvv-muenchen.de/index.html?name_origin=de:09162:530",
    "location_type": "0",
    "parent_station": "de:09162:530",
    "platform_code": "Gleis 1 Ri Studentenstadt"
  },
  {
    "stop_id": "de:09162:530:51:52",
    "stop_code": "",
    "stop_name": "Alte Heide Gleis 2 Ri Nordfriedhof",
    "stop_lat": "48.1786472",
    "stop_lon": "11.6025952",
    "stop_url": "https://efa.mvv-muenchen.de/index.html?name_origin=de:09162:530",
    "location_type": "0",
    "parent_station": "de:09162:530",
    "platform_code": "Gleis 2 Ri Nordfriedhof"
  },
  {
    "stop_id": "de:09162:540:51:51",
    "stop_code": "",
    "stop_name": "Studentenstadt Gleis 1 Ri Freimann",
    "stop_lat": "48.183481",
    "stop_lon": "11.6077067",
    "stop_url": "https://efa.mvv-muenchen.de/index.html?name_origin=de:09162:540",
    "location_type": "0",
    "parent_station": "de:09162:540",
    "platform_code": "Gleis 1 Ri Freimann"
  },
  {
    "stop_id": "de:09162:540:51:52",
    "stop_code": "",
    "stop_name": "Studentenstadt Gleis 2 Ri Alte Heide",
    "stop_lat": "48.1835349",
    "stop_lon": "11.6075989",
    "stop_url": "https://efa.mvv-muenchen.de/index.html?name_origin=de:09162:540",
    "location_type": "0",
    "parent_station": "de:09162:540",
    "platform_code": "Gleis 2 Ri Alte Heide"
  },
  {
    "stop_id": "de:09162:560:51:51",
    "stop_code": "",
    "stop_name": "Böhmerwaldplatz Gleis 1 Ri Prinzregentenplatz",
    "stop_lat": "48.1434315",
    "stop_lon": "11.6154322",
    "stop_url": "https://efa.mvv-muenchen.de/index.html?name_origin=de:09162:560",
    "location_type": "0",
    "parent_station": "de:09162:560",
    "platform_code": "Gleis 1 Ri Prinzregentenplatz"
  },
  {
    "stop_id": "de:09162:560:51:52",
    "stop_code": "",
    "stop_name": "Böhmerwaldplatz Gleis 2 Ri Richard-Strauss-Straße",
    "stop_lat": "48.1433836",
    "stop_lon": "11.6155759",
    "stop_url": "https://efa.mvv-muenchen.de/index.html?name_origin=de:09162:560",
    "location_type": "0",
    "parent_station": "de:09162:560",
    "platform_code": "Gleis 2 Ri Richard-Strauss-Straße"
  },
  {
    "stop_id": "de:09162:570:51:51",
    "stop_code": "",
    "stop_name": "Prinzregentenplatz Gleis 1 Ri Max-Weber-Platz",
    "stop_lat": "48.1392894",
    "stop_lon": "11.606979",
    "stop_url": "https://efa.mvv-muenchen.de/index.html?name_origin=de:09162:570",
    "location_type": "0",
    "parent_station": "de:09162:570",
    "platform_code": "Gleis 1 Ri Max-Weber-Platz"
  },
  {
    "stop_id": "de:09162:570:51:52",
    "stop_code": "",
    "stop_name": "Prinzregentenplatz Gleis 2 Ri Böhmerwaldplatz",
    "stop_lat": "48.1392355",
    "stop_lon": "11.6070868",
    "stop_url": "https://efa.mvv-muenchen.de/index.html?name_origin=de:09162:570",
    "location_type": "0",
    "parent_station": "de:09162:570",
    "platform_code": "Gleis 2 Ri Böhmerwaldplatz"
  },
  {
    "stop_id": "de:09162:580:51:51",
    "stop_code": "",
    "stop_name": "Max-Weber-Platz U5 Gleis 1 Ri Lehel",
    "stop_lat": "48.1357285",
    "stop_lon": "11.5987325",
    "stop_url": "https://efa.mvv-muenchen.de/index.html?name_origin=de:09162:580",
    "location_type": "0",
    "parent_station": "de:09162:580",
    "platform_code": "U5 Gleis 1 Ri Lehel"
  },
  {
    "stop_id": "de:09162:580:51:53",
    "stop_code": "",
    "stop_name": "Max-Weber-Platz U4 Gleis 3 Ri Lehel",
    "stop_lat": "48.1356565",
    "stop_lon": "11.5987325",
    "stop_url": "https://efa.mvv-muenchen.de/index.html?name_origin=de:09162:580",
    "location_type": "0",
    "parent_station": "de:09162:580",
    "platform_code": "U4 Gleis 3 Ri Lehel"
  },
  {
    "stop_id": "de:09162:580:52:52",
    "stop_code": "",
    "stop_name": "Max-Weber-Platz Gleis 2 Ri Prinzregentenpl./Ostbahnhof",
    "stop_lat": "48.1355786",
    "stop_lon": "11.5987594",
    "stop_url": "https://efa.mvv-muenchen.de/index.html?name_origin=de:09162:580",
    "location_type": "0",
    "parent_station": "de:09162:580",
    "platform_code": "Gleis 2 Ri Prinzregentenpl./Ostbahnhof"
  },
  {
    "stop_id": "de:09162:590:51:51",
    "stop_code": "",
    "stop_name": "Lehel Gleis 1 Ri Odeonsplatz",
    "stop_lat": "48.139739",
    "stop_lon": "11.5879437",
    "stop_url": "https://efa.mvv-muenchen.de/index.html?name_origin=de:09162:590",
    "location_type": "0",
    "parent_station": "de:09162:590",
    "platform_code": "Gleis 1 Ri Odeonsplatz"
  },
  {
    "stop_id": "de:09162:590:52:52",
    "stop_code": "",
    "stop_name": "Lehel Gleis 2 Ri Max-Weber-Platz",
    "stop_lat": "48.1396011",
    "stop_lon": "11.587818",
    "stop_url": "https://efa.mvv-muenchen.de/index.html?name_origin=de:09162:590",
    "location_type": "0",
    "parent_station": "de:09162:590",
    "platform_code": "Gleis 2 Ri Max-Weber-Platz"
  },
  {
    "stop_id": "de:09162:6:33:43",
    "stop_code": "",
    "stop_name": "Hauptbahnhof (U, Tram)",
    "stop_lat": "48.139727",
    "stop_lon": "11.5610392",
    "stop_url": "https://efa.mvv-muenchen.de/index.html?name_origin=de:09162:6",
    "location_type": "0",
    "parent_station": "de:09162:6",
    "platform_code": ""
  },
  {
    "stop_id": "de:09162:6:51:51",
    "stop_code": "",
    "stop_name": "Hauptbahnhof (U, Tram) U2/U8 Gleis 1 Ri Königsplatz",
    "stop_lat": "48.1400867",
    "stop_lon": "11.561129",
    "stop_url": "https://efa.mvv-muenchen.de/index.html?name_origin=de:09162:6",
    "location_type": "0",
    "parent_station": "de:09162:6",
    "platform_code": "U2/U8 Gleis 1 Ri Königsplatz"
  },
  {
    "stop_id": "de:09162:6:51:53",
    "stop_code": "",
    "stop_name": "Hauptbahnhof (U, Tram) U1/U7 Gleis 3 Ri Stiglmaierplatz",
    "stop_lat": "48.1400807",
    "stop_lon": "11.5612548",
    "stop_url": "https://efa.mvv-muenchen.de/index.html?name_origin=de:09162:6",
    "location_type": "0",
    "parent_station": "de:09162:6",
    "platform_code": "U1/U7 Gleis 3 Ri Stiglmaierplatz"
  },
  {
    "stop_id": "de:09162:6:52:52",
    "stop_code": "",
    "stop_name": "Hauptbahnhof (U, Tram) U2/U8 Gleis 2 Ri Sendlinger Tor",
    "stop_lat": "48.1400867",
    "stop_lon": "11.5610392",
    "stop_url": "https://efa.mvv-muenchen.de/index.html?name_origin=de:09162:6",
    "location_type": "0",
    "parent_station": "de:09162:6",
    "platform_code": "U2/U8 Gleis 2 Ri Sendlinger Tor"
  },
  {
    "stop_id": "de:09162:6:52:54",
    "stop_code": "",
    "stop_name": "Hauptbahnhof (U, Tram) U1/U7 Gleis 4 Ri Sendlinger Tor",
    "stop_lat": "48.1400987",
    "stop_lon": "11.5609044",
    "stop_url": "https://efa.mvv-muenchen.de/index.html?name_origin=de:09162:6",
    "location_type": "0",
    "parent_station": "de:09162:6",
    "platform_code": "U1/U7 Gleis 4 Ri Sendlinger Tor"
  },
  {
    "stop_id": "de:09162:6:55:55",
    "stop_code": "",
    "stop_name": "Hauptbahnhof (U, Tram) U4/U5 Gleis 1 Ri Theresienwiese",
    "stop_lat": "48.1393374",
    "stop_lon": "11.5598983",
    "stop_url": "https://efa.mvv-muenchen.de/index.html?name_origin=de:09162:6",
    "location_type": "0",
    "parent_station": "de:09162:6",
    "platform_code": "U4/U5 Gleis 1 Ri Theresienwiese"
  },
  {
    "stop_id": "de:09162:6:55:56",
    "stop_code": "",
    "stop_name": "Hauptbahnhof (U, Tram) U4/U5 Gleis 2 Ri Karlsplatz (Stachus)",
    "stop_lat": "48.1392295",
    "stop_lon": "11.5598983",
    "stop_url": "https://efa.mvv-muenchen.de/index.html?name_origin=de:09162:6",
    "location_type": "0",
    "parent_station": "de:09162:6",
    "platform_code": "U4/U5 Gleis 2 Ri Karlsplatz (Stachus)"
  },
  {
    "stop_id": "de:09162:60:51:51",
    "stop_code": "",
    "stop_name": "Odeonsplatz U3/U6 Gleis 1 Ri Universität",
    "stop_lat": "48.1433536",
    "stop_lon": "11.5780982",
    "stop_url": "https://efa.mvv-muenchen.de/index.html?name_origin=de:09162:60",
    "location_type": "0",
    "parent_station": "de:09162:60",
    "platform_code": "U3/U6 Gleis 1 Ri Universität"
  },
  {
    "stop_id": "de:09162:60:51:52",
    "stop_code": "",
    "stop_name": "Odeonsplatz U3/U6 Gleis 2 Ri Marienplatz",
    "stop_lat": "48.1433776",
    "stop_lon": "11.5779634",
    "stop_url": "https://efa.mvv-muenchen.de/index.html?name_origin=de:09162:60",
    "location_type": "0",
    "parent_station": "de:09162:60",
    "platform_code": "U3/U6 Gleis 2 Ri Marienplatz"
  },
  {
    "stop_id": "de:09162:60:53:53",
    "stop_code": "",
    "stop_name": "Odeonsplatz U4/U5 Gleis 1 Ri Karlsplatz (Stachus)",
    "stop_lat": "48.142958",
    "stop_lon": "11.5764004",
    "stop_url": "https://efa.mvv-muenchen.de/index.html?name_origin=de:09162:60",
    "location_type": "0",
    "parent_station": "de:09162:60",
    "platform_code": "U4/U5 Gleis 1 Ri Karlsplatz (Stachus)"
  },
  {
    "stop_id": "de:09162:60:54:54",
    "stop_code": "",
    "stop_name": "Odeonsplatz U4/U5 Gleis 2 Ri Lehel",
    "stop_lat": "48.1427362",
    "stop_lon": "11.5763195",
    "stop_url": "https://efa.mvv-muenchen.de/index.html?name_origin=de:09162:60",
    "location_type": "0",
    "parent_station": "de:09162:60",
    "platform_code": "U4/U5 Gleis 2 Ri Lehel"
  },
  {
    "stop_id": "de:09162:670:51:51",
    "stop_code": "",
    "stop_name": "Arabellapark Gleis 1 Ri Richard-Strauss-Straße",
    "stop_lat": "48.1535967",
    "stop_lon": "11.6220258",
    "stop_url": "https://efa.mvv-muenchen.de/index.html?name_origin=de:09162:670",
    "location_type": "0",
    "parent_station": "de:09162:670",
    "platform_code": "Gleis 1 Ri Richard-Strauss-Straße"
  },
  {
    "stop_id": "de:09162:670:51:52",
    "stop_code": "",
    "stop_name": "Arabellapark Gleis 2 Ausstieg",
    "stop_lat": "48.1535187",
    "stop_lon": "11.6220797",
    "stop_url": "https://efa.mvv-muenchen.de/index.html?name_origin=de:09162:670",
    "location_type": "0",
    "parent_station": "de:09162:670",
    "platform_code": "Gleis 2 Ausstieg"
  },
  {
    "stop_id": "de:09162:680:51:51",
    "stop_code": "",
    "stop_name": "Richard-Strauss-Straße Gleis 1 Ri Böhmerwaldplatz",
    "stop_lat": "48.1485084",
    "stop_lon": "11.616564",
    "stop_url": "https://efa.mvv-muenchen.de/index.html?name_origin=de:09162:680",
    "location_type": "0",
    "parent_station": "de:09162:680",
    "platform_code": "Gleis 1 Ri Böhmerwaldplatz"
  },
  {
    "stop_id": "de:09162:680:52:52",
    "stop_code": "",
    "stop_name": "Richard-Strauss-Straße Gleis 2 Ri Arabellapark",
    "stop_lat": "48.1485803",
    "stop_lon": "11.6166269",
    "stop_url": "https://efa.mvv-muenchen.de/index.html?name_origin=de:09162:680",
    "location_type": "0",
    "parent_station": "de:09162:680",
    "platform_code": "Gleis 2 Ri Arabellapark"
  },
  {
    "stop_id": "de:09162:70:51:51",
    "stop_code": "",
    "stop_name": "Universität Gleis 1 Ri Giselastraße",
    "stop_lat": "48.1502645",
    "stop_lon": "11.5811794",
    "stop_url": "https://efa.mvv-muenchen.de/index.html?name_origin=de:09162:70",
    "location_type": "0",
    "parent_station": "de:09162:70",
    "platform_code": "Gleis 1 Ri Giselastraße"
  },
  {
    "stop_id": "de:09162:70:51:52",
    "stop_code": "",
    "stop_name": "Universität Gleis 2 Ri Odeonsplatz",
    "stop_lat": "48.1502884",
    "stop_lon": "11.5810447",
    "stop_url": "https://efa.mvv-muenchen.de/index.html?name_origin=de:09162:70",
    "location_type": "0",
    "parent_station": "de:09162:70",
    "platform_code": "Gleis 2 Ri Odeonsplatz"
  },
  {
    "stop_id": "de:09162:7000:32:42",
    "stop_code": "",
    "stop_name": "Hauptbahnhof Nord",
    "stop_lat": "48.1424545",
    "stop_lon": "11.5607787",
    "stop_url": "https://efa.mvv-muenchen.de/index.html?name_origin=de:09162:7000",
    "location_type": "0",
    "parent_station": "de:09162:7000",
    "platform_code": ""
  },
  {
    "stop_id": "de:09162:7000:37:77",
    "stop_code": "",
    "stop_name": "Hauptbahnhof Nord",
    "stop_lat": "48.1426223",
    "stop_lon": "11.5598354",
    "stop_url": "https://efa.mvv-muenchen.de/index.html?name_origin=de:09162:7000",
    "location_type": "0",
    "parent_station": "de:09162:7000",
    "platform_code": ""
  },
  {
    "stop_id": "de:09162:740:51:51",
    "stop_code": "",
    "stop_name": "Milbertshofen Gleis 1 Ri Frankfurter Ring",
    "stop_lat": "48.1807557",
    "stop_lon": "11.5732203",
    "stop_url": "https://efa.mvv-muenchen.de/index.html?name_origin=de:09162:740",
    "location_type": "0",
    "parent_station": "de:09162:740",
    "platform_code": "Gleis 1 Ri Frankfurter Ring"
  },
  {
    "stop_id": "de:09162:740:51:52",
    "stop_code": "",
    "stop_name": "Milbertshofen Gleis 2 Ri Scheidplatz",
    "stop_lat": "48.1807557",
    "stop_lon": "11.5731036",
    "stop_url": "https://efa.mvv-muenchen.de/index.html?name_origin=de:09162:740",
    "location_type": "0",
    "parent_station": "de:09162:740",
    "platform_code": "Gleis 2 Ri Scheidplatz"
  },
  {
    "stop_id": "de:09162:750:51:51",
    "stop_code": "",
    "stop_name": "Frankfurter Ring Gleis 1 Ri Am Hart",
    "stop_lat": "48.1867691",
    "stop_lon": "11.5727802",
    "stop_url": "https://efa.mvv-muenchen.de/index.html?name_origin=de:09162:750",
    "location_type": "0",
    "parent_station": "de:09162:750",
    "platform_code": "Gleis 1 Ri Am Hart"
  },
  {
    "stop_id": "de:09162:750:51:52",
    "stop_code": "",
    "stop_name": "Frankfurter Ring Gleis 2 Ri Milbertshofen",
    "stop_lat": "48.1867691",
    "stop_lon": "11.5726634",
    "stop_url": "https://efa.mvv-muenchen.de/index.html?name_origin=de:09162:750",
    "location_type": "0",
    "parent_station": "de:09162:750",
    "platform_code": "Gleis 2 Ri Milbertshofen"
  },
  {
    "stop_id": "de:09162:760:51:51",
    "stop_code": "",
    "stop_name": "Am Hart Gleis 1 Ri Harthof",
    "stop_lat": "48.1958238",
    "stop_lon": "11.5718998",
    "stop_url": "https://efa.mvv-muenchen.de/index.html?name_origin=de:09162:760",
    "location_type": "0",
    "parent_station": "de:09162:760",
    "platform_code": "Gleis 1 Ri Harthof"
  },
  {
    "stop_id": "de:09162:760:51:52",
    "stop_code": "",
    "stop_name": "Am Hart Gleis 2 Ri Frankfurter Ring",
    "stop_lat": "48.1958238",
    "stop_lon": "11.5717561",
    "stop_url": "https://efa.mvv-muenchen.de/index.html?name_origin=de:09162:760",
    "location_type": "0",
    "parent_station": "de:09162:760",
    "platform_code": "Gleis 2 Ri Frankfurter Ring"
  },
  {
    "stop_id": "de:09162:770:51:51",
    "stop_code": "",
    "stop_name": "Harthof Gleis 1 Ri Dülferstraße",
    "stop_lat": "48.2043082",
    "stop_lon": "11.5694654",
    "stop_url": "https://efa.mvv-muenchen.de/index.html?name_origin=de:09162:770",
    "location_type": "0",
    "parent_station": "de:09162:770",
    "platform_code": "Gleis 1 Ri Dülferstraße"
  },
  {
    "stop_id": "de:09162:770:51:52",
    "stop_code": "",
    "stop_name": "Harthof Gleis 2 Ri Am Hart",
    "stop_lat": "48.2043022",
    "stop_lon": "11.5693127",
    "stop_url": "https://efa.mvv-muenchen.de/index.html?name_origin=de:09162:770",
    "location_type": "0",
    "parent_station": "de:09162:770",
    "platform_code": "Gleis 2 Ri Am Hart"
  },
  {
    "stop_id": "de:09162:780:51:51",
    "stop_code": "",
    "stop_name": "Dülferstraße Gleis 1 Ri Hasenbergl",
    "stop_lat": "48.2124499",
    "stop_lon": "11.5633029",
    "stop_url": "https://efa.mvv-muenchen.de/index.html?name_origin=de:09162:780",
    "location_type": "0",
    "parent_station": "de:09162:780",
    "platform_code": "Gleis 1 Ri Hasenbergl"
  },
  {
    "stop_id": "de:09162:780:51:52",
    "stop_code": "",
    "stop_name": "Dülferstraße Gleis 2 Ri Harthof",
    "stop_lat": "48.2123601",
    "stop_lon": "11.563249",
    "stop_url": "https://efa.mvv-muenchen.de/index.html?name_origin=de:09162:780",
    "location_type": "0",
    "parent_station": "de:09162:780",
    "platform_code": "Gleis 2 Ri Harthof"
  },
  {
    "stop_id": "de:09162:790:51:51",
    "stop_code": "",
    "stop_name": "Hasenbergl Gleis 1 Ri Feldmoching",
    "stop_lat": "48.2134855",
    "stop_lon": "11.5548678",
    "stop_url": "https://efa.mvv-muenchen.de/index.html?name_origin=de:09162:790",
    "location_type": "0",
    "parent_station": "de:09162:790",
    "platform_code": "Gleis 1 Ri Feldmoching"
  },
  {
    "stop_id": "de:09162:790:51:52",
    "stop_code": "",
    "stop_name": "Hasenbergl Gleis 2 Ri Dülferstraße",
    "stop_lat": "48.2134137",
    "stop_lon": "11.5548408",
    "stop_url": "https://efa.mvv-muenchen.de/index.html?name_origin=de:09162:790",
    "location_type": "0",
    "parent_station": "de:09162:790",
    "platform_code": "Gleis 2 Ri Dülferstraße"
  },
  {
    "stop_id": "de:09162:80:51:51",
    "stop_code": "",
    "stop_name": "Giselastraße Gleis 1 Ri Münchner Freiheit",
    "stop_lat": "48.1566949",
    "stop_lon": "11.5841618",
    "stop_url": "https://efa.mvv-muenchen.de/index.html?name_origin=de:09162:80",
    "location_type": "0",
    "parent_station": "de:09162:80",
    "platform_code": "Gleis 1 Ri Münchner Freiheit"
  },
  {
    "stop_id": "de:09162:80:51:52",
    "stop_code": "",
    "stop_name": "Giselastraße Gleis 2 Ri Universität",
    "stop_lat": "48.1567189",
    "stop_lon": "11.5840181",
    "stop_url": "https://efa.mvv-muenchen.de/index.html?name_origin=de:09162:80",
    "location_type": "0",
    "parent_station": "de:09162:80",
    "platform_code": "Gleis 2 Ri Universität"
  },
  {
    "stop_id": "de:09162:920:51:51",
    "stop_code": "",
    "stop_name": "Trudering Gleis 1 Ri Kreillerstraße",
    "stop_lat": "48.1257697",
    "stop_lon": "11.6621625",
    "stop_url": "https://efa.mvv-muenchen.de/index.html?name_origin=de:09162:920",
    "location_type": "0",
    "parent_station": "de:09162:920",
    "platform_code": "Gleis 1 Ri Kreillerstraße"
  },
  {
    "stop_id": "de:09162:920:52:52",
    "stop_code": "",
    "stop_name": "Trudering Gleis 2 Ri Moosfeld",
    "stop_lat": "48.1256797",
    "stop_lon": "11.6621086",
    "stop_url": "https://efa.mvv-muenchen.de/index.html?name_origin=de:09162:920",
    "location_type": "0",
    "parent_station": "de:09162:920",
    "platform_code": "Gleis 2 Ri Moosfeld"
  },
  {
    "stop_id": "de:09162:990:31:41",
    "stop_code": "",
    "stop_name": "Gern",
    "stop_lat": "48.1637478",
    "stop_lon": "11.5290053",
    "stop_url": "https://efa.mvv-muenchen.de/index.html?name_origin=de:09162:990",
    "location_type": "0",
    "parent_station": "de:09162:990",
    "platform_code": ""
  },
  {
    "stop_id": "de:09162:990:32:42",
    "stop_code": "",
    "stop_name": "Gern",
    "stop_lat": "48.1637418",
    "stop_lon": "11.5288795",
    "stop_url": "https://efa.mvv-muenchen.de/index.html?name_origin=de:09162:990",
    "location_type": "0",
    "parent_station": "de:09162:990",
    "platform_code": ""
  },
  {
    "stop_id": "de:09162:990:51:51",
    "stop_code": "",
    "stop_name": "Gern Gleis 1 Ri Westfriedhof",
    "stop_lat": "48.162825",
    "stop_lon": "11.529158",
    "stop_url": "https://efa.mvv-muenchen.de/index.html?name_origin=de:09162:990",
    "location_type": "0",
    "parent_station": "de:09162:990",
    "platform_code": "Gleis 1 Ri Westfriedhof"
  },
  {
    "stop_id": "de:09162:990:51:52",
    "stop_code": "",
    "stop_name": "Gern Gleis 2 Ri Rotkreuzplatz",
    "stop_lat": "48.162813",
    "stop_lon": "11.5290412",
    "stop_url": "https://efa.mvv-muenchen.de/index.html?name_origin=de:09162:990",
    "location_type": "0",
    "parent_station": "de:09162:990",
    "platform_code": "Gleis 2 Ri Rotkreuzplatz"
  },
  {
    "stop_id": "de:09184:460:11:51",
    "stop_code": "",
    "stop_name": "Garching, Forschungszentrum Gleis 1",
    "stop_lat": "48.2647896",
    "stop_lon": "11.671487",
    "stop_url": "https://efa.mvv-muenchen.de/index.html?name_origin=de:09184:460",
    "location_type": "0",
    "parent_station": "de:09184:460",
    "platform_code": "Gleis 1"
  },
  {
    "stop_id": "de:09184:460:11:52",
    "stop_code": "",
    "stop_name": "Garching, Forschungszentrum Gleis 2",
    "stop_lat": "48.2648076",
    "stop_lon": "11.6713613",
    "stop_url": "https://efa.mvv-muenchen.de/index.html?name_origin=de:09184:460",
    "location_type": "0",
    "parent_station": "de:09184:460",
    "platform_code": "Gleis 2"
  },
  {
    "stop_id": "de:09184:480:11:51",
    "stop_code": "",
    "stop_name": "Garching-Hochbrück Gleis 1",
    "stop_lat": "48.2474328",
    "stop_lon": "11.6311707",
    "stop_url": "https://efa.mvv-muenchen.de/index.html?name_origin=de:09184:480",
    "location_type": "0",
    "parent_station": "de:09184:480",
    "platform_code": "Gleis 1"
  },
  {
    "stop_id": "de:09184:480:12:52",
    "stop_code": "",
    "stop_name": "Garching-Hochbrück Gleis 2",
    "stop_lat": "48.2474447",
    "stop_lon": "11.6311168",
    "stop_url": "https://efa.mvv-muenchen.de/index.html?name_origin=de:09184:480",
    "location_type": "0",
    "parent_station": "de:09184:480",
    "platform_code": "Gleis 2"
  },
  {
    "stop_id": "de:09184:490:11:51",
    "stop_code": "",
    "stop_name": "Garching Gleis 1",
    "stop_lat": "48.2491974",
    "stop_lon": "11.6522811",
    "stop_url": "https://efa.mvv-muenchen.de/index.html?name_origin=de:09184:490",
    "location_type": "0",
    "parent_station": "de:09184:490",
    "platform_code": "Gleis 1"
  },
  {
    "stop_id": "de:09184:490:11:52",
    "stop_code": "",
    "stop_name": "Garching Gleis 2",
    "stop_lat": "48.2493829",
    "stop_lon": "11.6523619",
    "stop_url": "https://efa.mvv-muenchen.de/index.html?name_origin=de:09184:490",
    "location_type": "0",
    "parent_station": "de:09184:490",
    "platform_code": "Gleis 2"
  }
]